[{"bid": "2225815", "strasse": "Esperstedter Str.", "hnr": "6", "hnr_zusatz": "", "plz": "06577", "ort": "An der Schmücke", "name": "Sebastian Menger", "email": "mengersebastian@gmail.com", "mobil": "+491723622565", "festnetz": "+4934673772287", "typ": "EFH", "we": 1, "ge": 0, "zustimmung": "AGREED", "lat": 51.31158, "lng": 11.17237}, {"bid": "2225818", "strasse": "Thomas-Müntzer-Str.", "hnr": "6", "hnr_zusatz": "A", "plz": "06577", "ort": "An der Schmücke", "name": "Rudolf Deutsch", "email": "rudolfdeutsch@gmail.com", "mobil": "", "festnetz": "+49208686985", "typ": "EFH", "we": 1, "ge": 0, "zustimmung": "PENDING", "lat": 51.30244, "lng": 11.22082}, {"bid": "2225819", "strasse": "An der Mönchskappe", "hnr": "1", "hnr_zusatz": "", "plz": "06577", "ort": "An der Schmücke", "name": "Frank Pölzing Fachtierarzt für Kleintiere", "email": "poelzing@t-online.de", "mobil": "+491709505641", "festnetz": "+493467391639", "typ": "MFH", "we": 1, "ge": 1, "zustimmung": "AGREED", "lat": 51.30825, "lng": 11.16529}, {"bid": "2225826", "strasse": "Feldstr.", "hnr": "3", "hnr_zusatz": "", "plz": "06577", "ort": "An der Schmücke", "name": "Thomas Kopf", "email": "Thkopf@web.de", "mobil": "+491728434786", "festnetz": "+493467397875", "typ": "EFH", "we": 1, "ge": 0, "zustimmung": "AGREED", "lat": 51.30159, "lng": 11.22404}, {"bid": "2225824", "strasse": "Alte Heldrungener Str.", "hnr": "31", "hnr_zusatz": "", "plz": "06577", "ort": "An der Schmücke", "name": "Grit Fuhrmann", "email": "fa.taenzel@web.de", "mobil": "+4915901191167", "festnetz": "+4915901191167", "typ": "MFH", "we": 5, "ge": 0, "zustimmung": "PENDING", "lat": 51.30794, "lng": 11.17733}, {"bid": "2225820", "strasse": "Hohle", "hnr": "2", "hnr_zusatz": "", "plz": "06577", "ort": "An der Schmücke", "name": "Katja Dobritz", "email": "marcus.dobritz@gmail.com", "mobil": "+4915208931713", "festnetz": "", "typ": "MFH", "we": 2, "ge": 0, "zustimmung": "AGREED", "lat": 51.30851, "lng": 11.17009}, {"bid": "2225825", "strasse": "Gorslebener Weg", "hnr": "13", "hnr_zusatz": "", "plz": "06577", "ort": "An der Schmücke", "name": "Sven Puplick", "email": "sven_puplick@web.de", "mobil": "+491736641591", "festnetz": "+493467293330", "typ": "EFH", "we": 1, "ge": 0, "zustimmung": "AGREED", "lat": 51.29741, "lng": 11.21353}, {"bid": "2225827", "strasse": "Teichweg", "hnr": "19", "hnr_zusatz": "", "plz": "06577", "ort": "An der Schmücke", "name": "Thomas Vogt", "email": "vogt.heldrungen@freenet.de", "mobil": "+4915228909214", "festnetz": "", "typ": "EFH", "we": 1, "ge": 0, "zustimmung": "AGREED", "lat": 51.29706, "lng": 11.21864}, {"bid": "2225814", "strasse": "Wallstr.", "hnr": "2", "hnr_zusatz": "", "plz": "06577", "ort": "An der Schmücke", "name": "Volker Brandt", "email": "volker_brandt@arcor.de", "mobil": "+491749219146", "festnetz": "+493467390087", "typ": "EFH", "we": 1, "ge": 0, "zustimmung": "AGREED", "lat": 51.30092, "lng": 11.22061}, {"bid": "2225836", "strasse": "Wallstr.", "hnr": "12", "hnr_zusatz": "", "plz": "06577", "ort": "An der Schmücke", "name": "Ute Handke", "email": "u.handke@gmx.de", "mobil": "+4915202178440", "festnetz": "", "typ": "EFH", "we": 1, "ge": 0, "zustimmung": "AGREED", "lat": 51.30111, "lng": 11.21751}, {"bid": "2225832", "strasse": "Alte Heldrungener Str.", "hnr": "20", "hnr_zusatz": "", "plz": "06577", "ort": "An der Schmücke", "name": "Lutz Seydenschwanz", "email": "elsey1@t-online.de", "mobil": "+4917620354639", "festnetz": "+493467391670", "typ": "EFH", "we": 1, "ge": 0, "zustimmung": "AGREED", "lat": 51.30787, "lng": 11.17525}, {"bid": "2225837", "strasse": "Thomas-Müntzer-Str.", "hnr": "29", "hnr_zusatz": "", "plz": "06577", "ort": "An der Schmücke", "name": "Roland Schaller", "email": "info@pkagmbh.de", "mobil": "", "festnetz": "+493634602000", "typ": "MFH", "we": 8, "ge": 0, "zustimmung": "AGREED", "lat": 51.30386, "lng": 11.22118}, {"bid": "2225839", "strasse": "Karl-Liebknecht-Str.", "hnr": "35", "hnr_zusatz": "", "plz": "06577", "ort": "An der Schmücke", "name": "Ina Große", "email": "joachim.oldisleben@gmx.de", "mobil": "+491725980149", "festnetz": "+493467390689", "typ": "EFH", "we": 1, "ge": 0, "zustimmung": "AGREED", "lat": 51.30816, "lng": 11.16627}, {"bid": "2225831", "strasse": "Baderstr.", "hnr": "2", "hnr_zusatz": "A", "plz": "06577", "ort": "An der Schmücke", "name": "Michael Schmidt", "email": "schmidtm499@gmail.com", "mobil": "+491734124690", "festnetz": "+4934673783302", "typ": "EFH", "we": 1, "ge": 0, "zustimmung": "AGREED", "lat": 51.30265, "lng": 11.21744}, {"bid": "2225833", "strasse": "Hauptstr.", "hnr": "58", "hnr_zusatz": "A", "plz": "06577", "ort": "An der Schmücke", "name": "Uta Tettenborn", "email": "uta.tettenborn@web.de", "mobil": "+4917499854847", "festnetz": "+493467398365", "typ": "MFH", "we": 1, "ge": 1, "zustimmung": "AGREED", "lat": 51.30168, "lng": 11.21971}, {"bid": "2225835", "strasse": "Marktstr.", "hnr": "3", "hnr_zusatz": "", "plz": "06577", "ort": "An der Schmücke", "name": "Erich Wolff", "email": "steffenwolff@gmx.net", "mobil": "", "festnetz": "+493467397634", "typ": "MFH", "we": 3, "ge": 2, "zustimmung": "AGREED", "lat": 51.30995, "lng": 11.17181}, {"bid": "2225828", "strasse": "Karl-Marx-Str.", "hnr": "41", "hnr_zusatz": "", "plz": "06577", "ort": "An der Schmücke", "name": "Sebastian Wichert", "email": "anjakak944.ak@gmail.com", "mobil": "+491738816199", "festnetz": "+4934673188561", "typ": "EFH", "we": 1, "ge": 0, "zustimmung": "AGREED", "lat": 51.30341, "lng": 11.17328}, {"bid": "2225834", "strasse": "Gartenstr.", "hnr": "15", "hnr_zusatz": "", "plz": "06577", "ort": "An der Schmücke", "name": "Angela Hörold", "email": "angela-hoerold@t-online.de", "mobil": "+491777695008", "festnetz": "", "typ": "EFH", "we": 1, "ge": 0, "zustimmung": "AGREED", "lat": 51.29705, "lng": 11.21737}, {"bid": "2225849", "strasse": "Alte Heldrungener Str.", "hnr": "26", "hnr_zusatz": "", "plz": "06577", "ort": "An der Schmücke", "name": "Kerstin Schenck", "email": "k.schenck@freenet.de", "mobil": "+4917655226915", "festnetz": "+493467390679", "typ": "EFH", "we": 1, "ge": 0, "zustimmung": "AGREED", "lat": 51.30773, "lng": 11.176}, {"bid": "2225842", "strasse": "Mühlstr.", "hnr": "9", "hnr_zusatz": "A", "plz": "06577", "ort": "An der Schmücke", "name": "Heiko Kupfernagel", "email": "heikokupfernagel@t-online.de", "mobil": "+4916096385652", "festnetz": "+493467397337", "typ": "MFH", "we": 1, "ge": 1, "zustimmung": "AGREED", "lat": 51.29998, "lng": 11.22444}, {"bid": "2225844", "strasse": "Marktstr.", "hnr": "11", "hnr_zusatz": "", "plz": "06577", "ort": "An der Schmücke", "name": "Jens Müller", "email": "muellerjens29@gmail.com", "mobil": "+4917655209417", "festnetz": "+493467390858", "typ": "EFH", "we": 1, "ge": 0, "zustimmung": "AGREED", "lat": 51.30968, "lng": 11.17343}, {"bid": "2225854", "strasse": "Baderstr.", "hnr": "7", "hnr_zusatz": "", "plz": "06577", "ort": "An der Schmücke", "name": "Monika Große", "email": "gerhardgrosse55@gmail.com", "mobil": "+491624229910", "festnetz": "+493467391758", "typ": "EFH", "we": 1, "ge": 0, "zustimmung": "AGREED", "lat": 51.3033, "lng": 11.21755}, {"bid": "2225848", "strasse": "Hauptstr.", "hnr": "3", "hnr_zusatz": "A", "plz": "06577", "ort": "An der Schmücke", "name": "Joachim Müller", "email": "muellergudrun.49@gmail.com", "mobil": "+4915128875263", "festnetz": "+493467397308", "typ": "EFH", "we": 1, "ge": 0, "zustimmung": "AGREED", "lat": 51.30138, "lng": 11.22078}, {"bid": "2225845", "strasse": "Nachtigallenweg", "hnr": "2", "hnr_zusatz": "", "plz": "06577", "ort": "An der Schmücke", "name": "Margrit Roth", "email": "margritroth40@gmail.com", "mobil": "+491748218291", "festnetz": "+493467397342", "typ": "EFH", "we": 1, "ge": 0, "zustimmung": "AGREED", "lat": 51.29832, "lng": 11.21307}, {"bid": "2225852", "strasse": "Südstr.", "hnr": "8", "hnr_zusatz": "A", "plz": "06577", "ort": "An der Schmücke", "name": "Thomas Markus", "email": "t.markus.1971@web.de", "mobil": "+4915252852902", "festnetz": "+4934673151391", "typ": "MFH", "we": 5, "ge": 0, "zustimmung": "AGREED", "lat": 51.2968, "lng": 11.21893}, {"bid": "2225843", "strasse": "Karl-Marx-Str.", "hnr": "28", "hnr_zusatz": "", "plz": "06577", "ort": "An der Schmücke", "name": "Brit Schäfer", "email": "schaefer.oldisleben@t-online.de", "mobil": "+491728777267", "festnetz": "+493467377570", "typ": "EFH", "we": 1, "ge": 0, "zustimmung": "AGREED", "lat": 51.30422, "lng": 11.17299}, {"bid": "2225855", "strasse": "Karl-Marx-Str.", "hnr": "14", "hnr_zusatz": "", "plz": "06577", "ort": "An der Schmücke", "name": "Marcel Unbenannt", "email": "marcel-unbenannt@t-online.de", "mobil": "+491749003331", "festnetz": "+4934673157424", "typ": "EFH", "we": 1, "ge": 0, "zustimmung": "AGREED", "lat": 51.30774, "lng": 11.17076}, {"bid": "2225860", "strasse": "Oberheldrunger Str.", "hnr": "29", "hnr_zusatz": "", "plz": "06577", "ort": "An der Schmücke", "name": "Gerhard Knauf", "email": "frank-franjo@gmx.de", "mobil": "+4915252149971", "festnetz": "", "typ": "EFH", "we": 1, "ge": 0, "zustimmung": "AGREED", "lat": 51.2972, "lng": 11.21506}, {"bid": "2225858", "strasse": "Karl-Marx-Str.", "hnr": "34", "hnr_zusatz": "", "plz": "06577", "ort": "An der Schmücke", "name": "Tino Tettenborn", "email": "finger.anne@googlemail.com", "mobil": "+491627188162", "festnetz": "+4929419773418", "typ": "EFH", "we": 1, "ge": 0, "zustimmung": "AGREED", "lat": 51.30155, "lng": 11.1709}, {"bid": "2225856", "strasse": "Münstergasse", "hnr": "5", "hnr_zusatz": "", "plz": "06577", "ort": "An der Schmücke", "name": "Bernd Schilling", "email": "berndschilling944@gmail.com", "mobil": "+4917655076804", "festnetz": "+493467397690", "typ": "EFH", "we": 1, "ge": 0, "zustimmung": "AGREED", "lat": 51.30941, "lng": 11.17016}, {"bid": "2225865", "strasse": "Karl-Liebknecht-Str.", "hnr": "34", "hnr_zusatz": "", "plz": "06577", "ort": "An der Schmücke", "name": "Marko Demarczyk", "email": "md@vulkanevent.de", "mobil": "+491714245380", "festnetz": "+493467397632", "typ": "MFH", "we": 1, "ge": 1, "zustimmung": "AGREED", "lat": 51.30792, "lng": 11.1666}, {"bid": "2225863", "strasse": "Thomas-Müntzer-Str.", "hnr": "17", "hnr_zusatz": "A", "plz": "06577", "ort": "An der Schmücke", "name": "Patrick Taube", "email": "taube.heldrungen@web.de", "mobil": "+491739577587", "festnetz": "+493467396310", "typ": "EFH", "we": 1, "ge": 0, "zustimmung": "AGREED", "lat": 51.30321, "lng": 11.223}, {"bid": "2225868", "strasse": "Alte Heldrungener Str.", "hnr": "28", "hnr_zusatz": "", "plz": "06577", "ort": "An der Schmücke", "name": "Mario Amme", "email": "mario.amme@web.de", "mobil": "+491743124959", "festnetz": "+493467390276", "typ": "EFH", "we": 1, "ge": 0, "zustimmung": "AGREED", "lat": 51.30772, "lng": 11.17616}, {"bid": "2225857", "strasse": "Am Schlag", "hnr": "17", "hnr_zusatz": "", "plz": "06577", "ort": "An der Schmücke", "name": "Peter Hesse", "email": "p.d.hesse@web.de", "mobil": "+4915112015045", "festnetz": "", "typ": "EFH", "we": 1, "ge": 0, "zustimmung": "AGREED", "lat": 51.31123, "lng": 11.17041}, {"bid": "2225866", "strasse": "Teichweg", "hnr": "20", "hnr_zusatz": "", "plz": "06577", "ort": "An der Schmücke", "name": "Thomas Vogt", "email": "vogt.heldrungen@freenet.de", "mobil": "+4915228909214", "festnetz": "", "typ": "EFH", "we": 1, "ge": 0, "zustimmung": "AGREED", "lat": 51.29701, "lng": 11.21879}, {"bid": "2225862", "strasse": "Feldstr.", "hnr": "5", "hnr_zusatz": "", "plz": "06577", "ort": "An der Schmücke", "name": "Jürgen Ritschel", "email": "barbara.ritschel1962@gmail.com", "mobil": "+4915201324378", "festnetz": "+493467390336", "typ": "EFH", "we": 1, "ge": 0, "zustimmung": "AGREED", "lat": 51.30156, "lng": 11.22436}, {"bid": "2225872", "strasse": "Amselweg", "hnr": "3", "hnr_zusatz": "", "plz": "06577", "ort": "An der Schmücke", "name": "Jörg-Michael Boelke", "email": "cboelke1900@gmail.com", "mobil": "+491723410880", "festnetz": "+493467396216", "typ": "EFH", "we": 1, "ge": 0, "zustimmung": "AGREED", "lat": 51.29875, "lng": 11.21245}, {"bid": "2225874", "strasse": "Am Wässerchen", "hnr": "5", "hnr_zusatz": "", "plz": "06577", "ort": "An der Schmücke", "name": "Rolf Stettin", "email": "rolf.stettin@freenet.de", "mobil": "+4915141293832", "festnetz": "", "typ": "EFH", "we": 1, "ge": 0, "zustimmung": "AGREED", "lat": 51.30015, "lng": 11.22192}, {"bid": "2225870", "strasse": "Mühlstr.", "hnr": "2", "hnr_zusatz": "", "plz": "06577", "ort": "An der Schmücke", "name": "Anna-Maria Wicht", "email": "annawicht94@gmail.com", "mobil": "+4915225423389", "festnetz": "", "typ": "EFH", "we": 1, "ge": 0, "zustimmung": "AGREED", "lat": 51.30109, "lng": 11.22288}, {"bid": "2225880", "strasse": "Hauptstr.", "hnr": "59", "hnr_zusatz": "", "plz": "06577", "ort": "An der Schmücke", "name": "Nicolle Müller", "email": "nicolle.mueller@allianz.de", "mobil": "", "festnetz": "+493467378893", "typ": "MFH", "we": 2, "ge": 0, "zustimmung": "AGREED", "lat": 51.30164, "lng": 11.21994}, {"bid": "2225876", "strasse": "Karl-Marx-Str.", "hnr": "23", "hnr_zusatz": "", "plz": "06577", "ort": "An der Schmücke", "name": "Michael Kranich", "email": "Michael-Kranich@t-online.de", "mobil": "", "festnetz": "+4921811648415", "typ": "MFH", "we": 4, "ge": 0, "zustimmung": "AGREED", "lat": 51.3075, "lng": 11.17108}, {"bid": "2225873", "strasse": "Alte Heldrungener Str.", "hnr": "27", "hnr_zusatz": "", "plz": "06577", "ort": "An der Schmücke", "name": "Beate Tischendorf", "email": "beateboettner@hotmail.com", "mobil": "+491603558246", "festnetz": "", "typ": "EFH", "we": 1, "ge": 0, "zustimmung": "AGREED", "lat": 51.30791, "lng": 11.17661}, {"bid": "2225871", "strasse": "Wallstr.", "hnr": "21", "hnr_zusatz": "", "plz": "06577", "ort": "An der Schmücke", "name": "Stoyan Yordanov", "email": "geri_ioan@mail.bg", "mobil": "+4915141227530", "festnetz": "+4934673155388", "typ": "MFH", "we": 2, "ge": 0, "zustimmung": "AGREED", "lat": 51.30107, "lng": 11.21736}, {"bid": "2225881", "strasse": "Karl-Marx-Str.", "hnr": "51", "hnr_zusatz": "", "plz": "06577", "ort": "An der Schmücke", "name": "Mario Riesner", "email": "vertrieb-rijar@gmx.de", "mobil": "+491707315170", "festnetz": "+493636703371", "typ": "EFH", "we": 1, "ge": 0, "zustimmung": "AGREED", "lat": 51.30063, "lng": 11.1734}, {"bid": "2225877", "strasse": "Arternsches Tor", "hnr": "12", "hnr_zusatz": "", "plz": "06577", "ort": "An der Schmücke", "name": "Reiner Kunze", "email": "svenkunze70@gmail.com", "mobil": "+491749995003", "festnetz": "+493467390268", "typ": "EFH", "we": 1, "ge": 0, "zustimmung": "AGREED", "lat": 51.30266, "lng": 11.22347}, {"bid": "2225886", "strasse": "Hauptstr.", "hnr": "10", "hnr_zusatz": "", "plz": "06577", "ort": "An der Schmücke", "name": "Adelheid Laute", "email": "a@laute-kyff.de", "mobil": "+491735667395", "festnetz": "", "typ": "MFH", "we": 1, "ge": 1, "zustimmung": "AGREED", "lat": 51.30145, "lng": 11.2195}, {"bid": "2225889", "strasse": "Mühlstr.", "hnr": "8", "hnr_zusatz": "", "plz": "06577", "ort": "An der Schmücke", "name": "Tino Sander", "email": "tinosander@gmx.de", "mobil": "+491727400641", "festnetz": "+4934673785444", "typ": "EFH", "we": 1, "ge": 0, "zustimmung": "AGREED", "lat": 51.30068, "lng": 11.22384}, {"bid": "2225883", "strasse": "Esperstedter Str.", "hnr": "2", "hnr_zusatz": "", "plz": "06577", "ort": "An der Schmücke", "name": "Stephan Grimm", "email": "stephangrimm68@gmail.com", "mobil": "+491725652068", "festnetz": "", "typ": "EFH", "we": 1, "ge": 0, "zustimmung": "AGREED", "lat": 51.31111, "lng": 11.17224}, {"bid": "2225887", "strasse": "Esperstedter Str.", "hnr": "8", "hnr_zusatz": "B", "plz": "06577", "ort": "An der Schmücke", "name": "Gabriele Hoffmann-Kloppenborg", "email": "gabrielehof@gmail.com", "mobil": "+491753746196", "festnetz": "+4934673788714", "typ": "EFH", "we": 1, "ge": 0, "zustimmung": "AGREED", "lat": 51.31169, "lng": 11.17171}, {"bid": "2225888", "strasse": "Münstergasse", "hnr": "8", "hnr_zusatz": "", "plz": "06577", "ort": "An der Schmücke", "name": "Jürgen Glander", "email": "juergen-glandernospam@t-online.de", "mobil": "+4915208925893", "festnetz": "+493467390835", "typ": "EFH", "we": 1, "ge": 0, "zustimmung": "AGREED", "lat": 51.3092, "lng": 11.16962}, {"bid": "2225882", "strasse": "Baderstr.", "hnr": "8", "hnr_zusatz": "", "plz": "06577", "ort": "An der Schmücke", "name": "Dirk Vetter", "email": "vetter.heldrungen@freenet.de", "mobil": "+491705937720", "festnetz": "", "typ": "EFH", "we": 1, "ge": 0, "zustimmung": "AGREED", "lat": 51.30357, "lng": 11.21766}, {"bid": "2225893", "strasse": "Gartenstr.", "hnr": "10", "hnr_zusatz": "A", "plz": "06577", "ort": "An der Schmücke", "name": "Ulf Müller", "email": "muellerhaustechnik@web.de", "mobil": "+491739002033", "festnetz": "+493467397285", "typ": "MFH", "we": 1, "ge": 1, "zustimmung": "AGREED", "lat": 51.29598, "lng": 11.2183}, {"bid": "2225891", "strasse": "Alte Heldrungener Str.", "hnr": "30", "hnr_zusatz": "", "plz": "06577", "ort": "An der Schmücke", "name": "Christiane Schlauraff", "email": "christiane.tetzel@gmx.de", "mobil": "+4917672822469", "festnetz": "+493467318683", "typ": "EFH", "we": 1, "ge": 0, "zustimmung": "AGREED", "lat": 51.30771, "lng": 11.1763}, {"bid": "2225892", "strasse": "An der Mönchskappe", "hnr": "3", "hnr_zusatz": "", "plz": "06577", "ort": "An der Schmücke", "name": "Iris Stöpel", "email": "u.landes@web.de", "mobil": "+4915203979949", "festnetz": "+493467378522", "typ": "EFH", "we": 1, "ge": 0, "zustimmung": "AGREED", "lat": 51.30861, "lng": 11.16505}, {"bid": "2225899", "strasse": "Hauptstr.", "hnr": "65", "hnr_zusatz": "", "plz": "06577", "ort": "An der Schmücke", "name": "Paul Pölzing", "email": "pjwilmes@aol.com", "mobil": "+491717793110", "festnetz": "+493467391425", "typ": "MFH", "we": 4, "ge": 0, "zustimmung": "PENDING", "lat": 51.30156, "lng": 11.22138}, {"bid": "2225901", "strasse": "Nachtigallenweg", "hnr": "1", "hnr_zusatz": "", "plz": "06577", "ort": "An der Schmücke", "name": "Michael Kohl", "email": "micz1de@t-online.de", "mobil": "+491755459567", "festnetz": "+4934673780948", "typ": "EFH", "we": 1, "ge": 0, "zustimmung": "AGREED", "lat": 51.29811, "lng": 11.21285}, {"bid": "2225897", "strasse": "Oberheldrunger Str.", "hnr": "19", "hnr_zusatz": "D", "plz": "06577", "ort": "An der Schmücke", "name": "Dana Cepa", "email": "dana-cepa@gmx.de", "mobil": "+4917680829659", "festnetz": "", "typ": "EFH", "we": 1, "ge": 0, "zustimmung": "AGREED", "lat": 51.29754, "lng": 11.21461}, {"bid": "2225894", "strasse": "Baderstr.", "hnr": "9", "hnr_zusatz": "", "plz": "06577", "ort": "An der Schmücke", "name": "Lutz Schlaf", "email": "annelutz.muede@gmx.de", "mobil": "+491731689742", "festnetz": "+493467397254", "typ": "EFH", "we": 1, "ge": 0, "zustimmung": "AGREED", "lat": 51.30372, "lng": 11.21793}, {"bid": "2225905", "strasse": "Mühlstr.", "hnr": "27", "hnr_zusatz": "", "plz": "06577", "ort": "An der Schmücke", "name": "Veronika Weber", "email": "schuhmodenweber@web.de", "mobil": "+491744451552", "festnetz": "+493467397341", "typ": "MFH", "we": 1, "ge": 1, "zustimmung": "AGREED", "lat": 51.30023, "lng": 11.22494}, {"bid": "2225895", "strasse": "Marktstr.", "hnr": "16", "hnr_zusatz": "A", "plz": "06577", "ort": "An der Schmücke", "name": "Silvio Michaelis", "email": "silvio_michaelis@web.de", "mobil": "+491733684067", "festnetz": "+4934673649879", "typ": "EFH", "we": 1, "ge": 0, "zustimmung": "AGREED", "lat": 51.30931, "lng": 11.17368}, {"bid": "2225906", "strasse": "Esperstedter Str.", "hnr": "10", "hnr_zusatz": "", "plz": "06577", "ort": "An der Schmücke", "name": "Wolfgang Tänzel", "email": "oldsbay@web.de", "mobil": "+491733945625", "festnetz": "+493467397558", "typ": "MFH", "we": 1, "ge": 1, "zustimmung": "AGREED", "lat": 51.31269, "lng": 11.17247}, {"bid": "2225904", "strasse": "Oberheldrunger Str.", "hnr": "22", "hnr_zusatz": "", "plz": "06577", "ort": "An der Schmücke", "name": "Dirk Fuhrmann", "email": "fuhrmanndirk68@web.de", "mobil": "+4915204561313", "festnetz": "", "typ": "EFH", "we": 1, "ge": 0, "zustimmung": "AGREED", "lat": 51.29799, "lng": 11.21444}, {"bid": "2225896", "strasse": "Karl-Marx-Str.", "hnr": "20", "hnr_zusatz": "", "plz": "06577", "ort": "An der Schmücke", "name": "Marco Müller", "email": "muellermarco774@gmail.com", "mobil": "+491709026575", "festnetz": "", "typ": "EFH", "we": 1, "ge": 0, "zustimmung": "AGREED", "lat": 51.30725, "lng": 11.17103}, {"bid": "2225908", "strasse": "Hauptstr.", "hnr": "9", "hnr_zusatz": "", "plz": "06577", "ort": "An der Schmücke", "name": "Enrico Steinkopf", "email": "bsfmsteinkopf@t-online.de", "mobil": "+491723586885", "festnetz": "+491723586885", "typ": "EFH", "we": 1, "ge": 0, "zustimmung": "AGREED", "lat": 51.30145, "lng": 11.21963}, {"bid": "2225918", "strasse": "Hauptstr.", "hnr": "5", "hnr_zusatz": "", "plz": "06577", "ort": "An der Schmücke", "name": "Siegfried Rönnecke", "email": "gerhard@fam-roennecke.de", "mobil": "+4916098635618", "festnetz": "+493467318736", "typ": "MFH", "we": 2, "ge": 0, "zustimmung": "AGREED", "lat": 51.30139, "lng": 11.22055}, {"bid": "2225911", "strasse": "An der Mönchskappe", "hnr": "2", "hnr_zusatz": "", "plz": "06577", "ort": "An der Schmücke", "name": "Jürgen Böhme", "email": "juergenboehmeweb@web.de", "mobil": "+491727962049", "festnetz": "+493467397688", "typ": "EFH", "we": 1, "ge": 0, "zustimmung": "AGREED", "lat": 51.30844, "lng": 11.16523}, {"bid": "2225920", "strasse": "Baderstr.", "hnr": "10", "hnr_zusatz": "", "plz": "06577", "ort": "An der Schmücke", "name": "Daniel Grimmer", "email": "wahnsinnig1988@web.de", "mobil": "+491794432736", "festnetz": "+4934673204660", "typ": "MFH", "we": 1, "ge": 1, "zustimmung": "AGREED", "lat": 51.30417, "lng": 11.21802}, {"bid": "2225913", "strasse": "Alte Heldrungener Str.", "hnr": "32", "hnr_zusatz": "", "plz": "06577", "ort": "An der Schmücke", "name": "Martin Voigt", "email": "martinvoigtland@gmail.com", "mobil": "+4917684431379", "festnetz": "+493467390038", "typ": "EFH", "we": 1, "ge": 0, "zustimmung": "AGREED", "lat": 51.30771, "lng": 11.17637}, {"bid": "2225914", "strasse": "Baderstr.", "hnr": "9", "hnr_zusatz": "A", "plz": "06577", "ort": "An der Schmücke", "name": "Jürgen Markus", "email": "markus.juergen@googlemail.com", "mobil": "+491749652815", "festnetz": "+493467378697", "typ": "EFH", "we": 1, "ge": 0, "zustimmung": "AGREED", "lat": 51.30376, "lng": 11.21798}, {"bid": "2225910", "strasse": "Teichweg", "hnr": "22", "hnr_zusatz": "", "plz": "06577", "ort": "An der Schmücke", "name": "Martin Ziegler", "email": "kralle7@t-online.de", "mobil": "+491733546538", "festnetz": "", "typ": "EFH", "we": 1, "ge": 0, "zustimmung": "AGREED", "lat": 51.29697, "lng": 11.21902}, {"bid": "2225919", "strasse": "Karl-Marx-Str.", "hnr": "55", "hnr_zusatz": "", "plz": "06577", "ort": "An der Schmücke", "name": "Matthias Klug", "email": "Klutho@gmx.net", "mobil": "+491724909714", "festnetz": "", "typ": "MFH", "we": 1, "ge": 1, "zustimmung": "AGREED", "lat": 51.30118, "lng": 11.17346}, {"bid": "2225921", "strasse": "Amselweg", "hnr": "10", "hnr_zusatz": "", "plz": "06577", "ort": "An der Schmücke", "name": "Annerose Beier", "email": "berndbeier153@gmail.com", "mobil": "+4915251368324", "festnetz": "+4934673149991", "typ": "EFH", "we": 1, "ge": 0, "zustimmung": "AGREED", "lat": 51.29854, "lng": 11.21255}, {"bid": "2225928", "strasse": "Arternsches Tor", "hnr": "19", "hnr_zusatz": "", "plz": "06577", "ort": "An der Schmücke", "name": "Rainer Weißenborn", "email": "weissenborn2810@gmail.com", "mobil": "+491797267924", "festnetz": "+493467390267", "typ": "EFH", "we": 1, "ge": 0, "zustimmung": "AGREED", "lat": 51.30151, "lng": 11.22255}, {"bid": "2225926", "strasse": "Teichweg", "hnr": "21", "hnr_zusatz": "", "plz": "06577", "ort": "An der Schmücke", "name": "Daniel Koch", "email": "danielkochteichweg21@gmail.com", "mobil": "+491733613689", "festnetz": "+4934673204745", "typ": "EFH", "we": 1, "ge": 0, "zustimmung": "AGREED", "lat": 51.297, "lng": 11.21896}, {"bid": "2225923", "strasse": "Karl-Marx-Str.", "hnr": "56", "hnr_zusatz": "", "plz": "06577", "ort": "An der Schmücke", "name": "Andreas Klug", "email": "Andreas.klug63@t-online.de", "mobil": "+4915222408832", "festnetz": "", "typ": "EFH", "we": 1, "ge": 0, "zustimmung": "AGREED", "lat": 51.30103, "lng": 11.17354}, {"bid": "2225922", "strasse": "Frankenhäuser Str.", "hnr": "3", "hnr_zusatz": "", "plz": "06577", "ort": "An der Schmücke", "name": "Jan Tänzel", "email": "oldsbay@web.de", "mobil": "+491733945625", "festnetz": "+491733945625", "typ": "MFH", "we": 1, "ge": 1, "zustimmung": "AGREED", "lat": 51.30984, "lng": 11.17032}, {"bid": "2225925", "strasse": "Am Schlag", "hnr": "8", "hnr_zusatz": "", "plz": "06577", "ort": "An der Schmücke", "name": "Claudia Mehle", "email": "claudia.mehle@gmx.de", "mobil": "+4915252873393", "festnetz": "", "typ": "EFH", "we": 1, "ge": 0, "zustimmung": "AGREED", "lat": 51.31128, "lng": 11.17127}, {"bid": "2225924", "strasse": "Alte Heldrungener Str.", "hnr": "36", "hnr_zusatz": "", "plz": "06577", "ort": "An der Schmücke", "name": "Lukas Jäckel", "email": "luggi_jaeckel@web.de", "mobil": "+491732391837", "festnetz": "+493467391494", "typ": "EFH", "we": 1, "ge": 0, "zustimmung": "AGREED", "lat": 51.30775, "lng": 11.17692}, {"bid": "2225936", "strasse": "Oberheldrunger Str.", "hnr": "19", "hnr_zusatz": "A", "plz": "06577", "ort": "An der Schmücke", "name": "Fritz Reinhardt", "email": "gabi-heldrungen@gmx.de", "mobil": "+4915202338084", "festnetz": "+493467397351", "typ": "EFH", "we": 1, "ge": 0, "zustimmung": "AGREED", "lat": 51.29793, "lng": 11.21467}, {"bid": "2225933", "strasse": "Hauptstr.", "hnr": "64", "hnr_zusatz": "", "plz": "06577", "ort": "An der Schmücke", "name": "Rainer Hörig", "email": "jiho88@web.de", "mobil": "+4915222647509", "festnetz": "+493467390792", "typ": "EFH", "we": 1, "ge": 0, "zustimmung": "AGREED", "lat": 51.30168, "lng": 11.22117}, {"bid": "2225935", "strasse": "Wallstr.", "hnr": "11", "hnr_zusatz": "A", "plz": "06577", "ort": "An der Schmücke", "name": "Lutz Elsmann", "email": "lutz.elsmann@freenet.de", "mobil": "+491777348732", "festnetz": "", "typ": "EFH", "we": 1, "ge": 0, "zustimmung": "AGREED", "lat": 51.30108, "lng": 11.21819}, {"bid": "2225938", "strasse": "Am Schlag", "hnr": "10", "hnr_zusatz": "", "plz": "06577", "ort": "An der Schmücke", "name": "Hoppe Otmar", "email": "christianwso87@t-online.de", "mobil": "+4915168468943", "festnetz": "+493467391028", "typ": "EFH", "we": 1, "ge": 0, "zustimmung": "AGREED", "lat": 51.3113, "lng": 11.17097}, {"bid": "2225942", "strasse": "Thomas-Müntzer-Str.", "hnr": "10", "hnr_zusatz": "", "plz": "06577", "ort": "An der Schmücke", "name": "Roland Schaller", "email": "info@pkagmbh.de", "mobil": "", "festnetz": "+493634602000", "typ": "MFH", "we": 7, "ge": 0, "zustimmung": "AGREED", "lat": 51.30293, "lng": 11.22246}, {"bid": "2225943", "strasse": "Frankenhäuser Str.", "hnr": "15", "hnr_zusatz": "", "plz": "06577", "ort": "An der Schmücke", "name": "Lars Scherbe", "email": "larsscherbe@gmx.de", "mobil": "+491727956286", "festnetz": "+493467391061", "typ": "EFH", "we": 1, "ge": 0, "zustimmung": "AGREED", "lat": 51.31007, "lng": 11.16937}, {"bid": "2225940", "strasse": "Sperlingsberg", "hnr": "4", "hnr_zusatz": "", "plz": "06577", "ort": "An der Schmücke", "name": "Selina Prodöhl", "email": "prodoehl92@web.de", "mobil": "+491733458480", "festnetz": "+4934673204583", "typ": "EFH", "we": 1, "ge": 0, "zustimmung": "AGREED", "lat": 51.30872, "lng": 11.17043}, {"bid": "2225946", "strasse": "Am Schlag", "hnr": "17", "hnr_zusatz": "B", "plz": "06577", "ort": "An der Schmücke", "name": "Marcel Jeske", "email": "marceljeske.7@gmail.com", "mobil": "+491704780503", "festnetz": "+4934673779608", "typ": "EFH", "we": 1, "ge": 0, "zustimmung": "AGREED", "lat": 51.31107, "lng": 11.17103}, {"bid": "2225939", "strasse": "Wallstr.", "hnr": "5", "hnr_zusatz": "", "plz": "06577", "ort": "An der Schmücke", "name": "Günter Hohlstamm", "email": "guenter.hohlstamm54@gmail.com", "mobil": "+491629160969", "festnetz": "+493467397407", "typ": "EFH", "we": 1, "ge": 0, "zustimmung": "AGREED", "lat": 51.30092, "lng": 11.22}, {"bid": "2225947", "strasse": "Klostergasse", "hnr": "1", "hnr_zusatz": "", "plz": "06577", "ort": "An der Schmücke", "name": "Christopher Schulze", "email": "info@gis-schulze.de", "mobil": "+491717795393", "festnetz": "", "typ": "EFH", "we": 1, "ge": 0, "zustimmung": "AGREED", "lat": 51.30729, "lng": 11.1735}, {"bid": "2225944", "strasse": "Südstr.", "hnr": "3", "hnr_zusatz": "", "plz": "06577", "ort": "An der Schmücke", "name": "Kristin Petra Sztremi-Kirbach", "email": "k.sztremi@yahoo.de", "mobil": "+491721598865", "festnetz": "+4934673779870", "typ": "EFH", "we": 1, "ge": 0, "zustimmung": "AGREED", "lat": 51.29646, "lng": 11.21872}, {"bid": "2225937", "strasse": "Karl-Liebknecht-Str.", "hnr": "32", "hnr_zusatz": "A", "plz": "06577", "ort": "An der Schmücke", "name": "Hartmut Rumpf", "email": "verina-rumpf@web.de", "mobil": "+4915206152759", "festnetz": "+493467397631", "typ": "EFH", "we": 1, "ge": 0, "zustimmung": "AGREED", "lat": 51.30761, "lng": 11.16687}, {"bid": "2225956", "strasse": "Klostergasse", "hnr": "1", "hnr_zusatz": "A", "plz": "06577", "ort": "An der Schmücke", "name": "Christopher Schulze", "email": "schulze_christopher@t-online.de", "mobil": "+4915144676862", "festnetz": "", "typ": "EFH", "we": 1, "ge": 0, "zustimmung": "AGREED", "lat": 51.30755, "lng": 11.17408}, {"bid": "2225949", "strasse": "Oberheldrunger Str.", "hnr": "8", "hnr_zusatz": "", "plz": "06577", "ort": "An der Schmücke", "name": "Elfi Grünewald", "email": "bodobrand@t-online.de", "mobil": "+491733291001", "festnetz": "+493467390362", "typ": "EFH", "we": 1, "ge": 0, "zustimmung": "AGREED", "lat": 51.29933, "lng": 11.21538}, {"bid": "2225951", "strasse": "Nachtigallenweg", "hnr": "4", "hnr_zusatz": "", "plz": "06577", "ort": "An der Schmücke", "name": "Edeltraut Juris", "email": "edeltraut-juris@t-online.de", "mobil": "+4915156770949", "festnetz": "", "typ": "EFH", "we": 1, "ge": 0, "zustimmung": "AGREED", "lat": 51.29863, "lng": 11.21341}, {"bid": "2225957", "strasse": "Mühlstr.", "hnr": "12", "hnr_zusatz": "", "plz": "06577", "ort": "An der Schmücke", "name": "Anita John", "email": "aj4539810@gmail.com", "mobil": "+4915172117267", "festnetz": "+4934673799867", "typ": "EFH", "we": 1, "ge": 0, "zustimmung": "AGREED", "lat": 51.30042, "lng": 11.22406}, {"bid": "2225964", "strasse": "Arternsches Tor", "hnr": "15", "hnr_zusatz": "", "plz": "06577", "ort": "An der Schmücke", "name": "Wilfried Müller", "email": "muellerwiwa@t-online.de", "mobil": "+4915205644733", "festnetz": "+493467397806", "typ": "EFH", "we": 1, "ge": 0, "zustimmung": "AGREED", "lat": 51.30244, "lng": 11.2233}, {"bid": "2225958", "strasse": "Baderstr.", "hnr": "11", "hnr_zusatz": "", "plz": "06577", "ort": "An der Schmücke", "name": "Sylka Koppo", "email": "sylka64koppo@gmx.de", "mobil": "+4915252493934", "festnetz": "", "typ": "EFH", "we": 1, "ge": 0, "zustimmung": "AGREED", "lat": 51.30412, "lng": 11.21818}, {"bid": "2225955", "strasse": "Karl-Liebknecht-Str.", "hnr": "32", "hnr_zusatz": "", "plz": "06577", "ort": "An der Schmücke", "name": "Gerhard Erich Schlücke", "email": "gerhard.schluecke@gmx.de", "mobil": "+491727903739", "festnetz": "+493467397630", "typ": "EFH", "we": 1, "ge": 0, "zustimmung": "AGREED", "lat": 51.30786, "lng": 11.16706}, {"bid": "2225960", "strasse": "Marktstr.", "hnr": "30", "hnr_zusatz": "", "plz": "06577", "ort": "An der Schmücke", "name": "Udo Seydenschwanz Gase-Center", "email": "udo.seydenschwanz@freenet.de", "mobil": "+491725215791", "festnetz": "+493467396482", "typ": "MFH", "we": 1, "ge": 1, "zustimmung": "AGREED", "lat": 51.30886, "lng": 11.17576}, {"bid": "2225953", "strasse": "Südstr.", "hnr": "5", "hnr_zusatz": "", "plz": "06577", "ort": "An der Schmücke", "name": "Elke Hafermalz", "email": "jhaferm@gmail.com", "mobil": "+4917655451104", "festnetz": "", "typ": "EFH", "we": 1, "ge": 0, "zustimmung": "AGREED", "lat": 51.2963, "lng": 11.21856}, {"bid": "2225968", "strasse": "Mühlstr.", "hnr": "25", "hnr_zusatz": "", "plz": "06577", "ort": "An der Schmücke", "name": "Sabrina Grube", "email": "hakkeledder2015@gmail.com", "mobil": "+491602469874", "festnetz": "+4934673649907", "typ": "MFH", "we": 1, "ge": 1, "zustimmung": "AGREED", "lat": 51.30129, "lng": 11.22208}, {"bid": "2225979", "strasse": "Baderstr.", "hnr": "12", "hnr_zusatz": "", "plz": "06577", "ort": "An der Schmücke", "name": "Maximilian Vetter", "email": "maximilian_vetter@gmx.de", "mobil": "+4915174404596", "festnetz": "+4934673788346", "typ": "EFH", "we": 1, "ge": 0, "zustimmung": "AGREED", "lat": 51.30412, "lng": 11.21832}, {"bid": "2225970", "strasse": "Oberheldrunger Str.", "hnr": "20", "hnr_zusatz": "", "plz": "06577", "ort": "An der Schmücke", "name": "Maik Balthasar", "email": "maik.balthasar@web.de", "mobil": "+491725927956", "festnetz": "", "typ": "MFH", "we": 4, "ge": 0, "zustimmung": "AGREED", "lat": 51.29786, "lng": 11.21439}, {"bid": "2225966", "strasse": "Marktstr.", "hnr": "28", "hnr_zusatz": "", "plz": "06577", "ort": "An der Schmücke", "name": "Melanie Rudolph", "email": "nico-metze@freenet.de", "mobil": "+491775988041", "festnetz": "+4934673691078", "typ": "MFH", "we": 6, "ge": 0, "zustimmung": "AGREED", "lat": 51.30897, "lng": 11.17545}, {"bid": "2225972", "strasse": "Hauptstr.", "hnr": "63", "hnr_zusatz": "A", "plz": "06577", "ort": "An der Schmücke", "name": "Zehentner und Seidel", "email": "mail@hv-weimar.de", "mobil": "", "festnetz": "+4934673839416", "typ": "MFH", "we": 1, "ge": 2, "zustimmung": "AGREED", "lat": 51.30156, "lng": 11.22082}, {"bid": "2225973", "strasse": "Münstergasse", "hnr": "4", "hnr_zusatz": "", "plz": "06577", "ort": "An der Schmücke", "name": "Doreen Gaudig", "email": "doreen.renner@freenet.de", "mobil": "+491724147258", "festnetz": "+4934673153375", "typ": "MFH", "we": 2, "ge": 0, "zustimmung": "AGREED", "lat": 51.30945, "lng": 11.17003}, {"bid": "2225971", "strasse": "Karl-Marx-Str.", "hnr": "35", "hnr_zusatz": "", "plz": "06577", "ort": "An der Schmücke", "name": "Patrick Kutzlebe", "email": "patrick.kutzlebe@gmx.de", "mobil": "+491733765480", "festnetz": "+4934673204458", "typ": "EFH", "we": 1, "ge": 0, "zustimmung": "AGREED", "lat": 51.3044, "lng": 11.17322}, {"bid": "2225978", "strasse": "Amselweg", "hnr": "8", "hnr_zusatz": "", "plz": "06577", "ort": "An der Schmücke", "name": "Hans Rümmler", "email": "ruemmler-heldrungen@t-online.de", "mobil": "+491716924035", "festnetz": "+493467398034", "typ": "MFH", "we": 1, "ge": 1, "zustimmung": "AGREED", "lat": 51.29882, "lng": 11.21288}, {"bid": "2225977", "strasse": "Neue Str.", "hnr": "8", "hnr_zusatz": "", "plz": "06577", "ort": "An der Schmücke", "name": "Tina Herrmann", "email": "tina.herrmann1990@gmail.com", "mobil": "+4915256075578", "festnetz": "+4934673784877", "typ": "EFH", "we": 1, "ge": 0, "zustimmung": "AGREED", "lat": 51.30915, "lng": 11.16839}, {"bid": "2225982", "strasse": "Karl-Marx-Str.", "hnr": "21", "hnr_zusatz": "", "plz": "06577", "ort": "An der Schmücke", "name": "Kai Seidel", "email": "effekt-disko@web.de", "mobil": "+491733906757", "festnetz": "+493467396056", "typ": "MFH", "we": 2, "ge": 0, "zustimmung": "AGREED", "lat": 51.30767, "lng": 11.1715}, {"bid": "2225987", "strasse": "Klostergasse", "hnr": "3", "hnr_zusatz": "", "plz": "06577", "ort": "An der Schmücke", "name": "Michael Grimmer", "email": "migrim@gmx.de", "mobil": "+4917631024274", "festnetz": "+49346790708", "typ": "EFH", "we": 1, "ge": 0, "zustimmung": "AGREED", "lat": 51.30715, "lng": 11.17338}, {"bid": "2225984", "strasse": "Neue Str.", "hnr": "21", "hnr_zusatz": "", "plz": "06577", "ort": "An der Schmücke", "name": "Diana Linsenbarth", "email": "motzkymc92@freenet.de", "mobil": "+491723963964", "festnetz": "+493467377964", "typ": "EFH", "we": 1, "ge": 0, "zustimmung": "AGREED", "lat": 51.3088, "lng": 11.16756}, {"bid": "2225980", "strasse": "Wallstr.", "hnr": "3", "hnr_zusatz": "", "plz": "06577", "ort": "An der Schmücke", "name": "Mandy Eckardt", "email": "lupchenskirsche@googlemail.com", "mobil": "+491737303393", "festnetz": "+4934673169204", "typ": "EFH", "we": 1, "ge": 0, "zustimmung": "AGREED", "lat": 51.30089, "lng": 11.22043}, {"bid": "2225983", "strasse": "Mühlstr.", "hnr": "11", "hnr_zusatz": "", "plz": "06577", "ort": "An der Schmücke", "name": "Detlef Thieme", "email": "info@mig-verwaltung.de", "mobil": "+4915202040328", "festnetz": "+493467391711", "typ": "EFH", "we": 1, "ge": 0, "zustimmung": "AGREED", "lat": 51.30034, "lng": 11.22424}, {"bid": "2225985", "strasse": "Amselweg", "hnr": "6", "hnr_zusatz": "", "plz": "06577", "ort": "An der Schmücke", "name": "Falk Wagner", "email": "falk_wagner@web.de", "mobil": "+4915227397356", "festnetz": "+493467398338", "typ": "EFH", "we": 1, "ge": 0, "zustimmung": "AGREED", "lat": 51.29909, "lng": 11.21319}, {"bid": "2225988", "strasse": "Sackgasse", "hnr": "14", "hnr_zusatz": "", "plz": "06577", "ort": "An der Schmücke", "name": "Maren Nordmann", "email": "maren.nordmann@t-online.de", "mobil": "+491622446761", "festnetz": "+493467396300", "typ": "EFH", "we": 1, "ge": 0, "zustimmung": "AGREED", "lat": 51.30453, "lng": 11.17418}, {"bid": "2225990", "strasse": "Klostergasse", "hnr": "4", "hnr_zusatz": "", "plz": "06577", "ort": "An der Schmücke", "name": "Karola Schmidt", "email": "karolaschmidtfehr@gmail.com", "mobil": "+491735928905", "festnetz": "+493467397660", "typ": "EFH", "we": 1, "ge": 0, "zustimmung": "AGREED", "lat": 51.30783, "lng": 11.17362}, {"bid": "2225981", "strasse": "Hauptstr.", "hnr": "17", "hnr_zusatz": "", "plz": "06577", "ort": "An der Schmücke", "name": "Ronny Nickmann", "email": "der-nickmann@web.de", "mobil": "+491778069809", "festnetz": "", "typ": "MFH", "we": 1, "ge": 1, "zustimmung": "AGREED", "lat": 51.30154, "lng": 11.21785}, {"bid": "2225991", "strasse": "Thomas-Müntzer-Str.", "hnr": "9", "hnr_zusatz": "", "plz": "06577", "ort": "An der Schmücke", "name": "Rainer Kuhn", "email": "rainer.kuhn@gmx.de", "mobil": "+491717339158", "festnetz": "+4934673188538", "typ": "MFH", "we": 7, "ge": 0, "zustimmung": "AGREED", "lat": 51.30287, "lng": 11.22194}, {"bid": "2225995", "strasse": "Frankenhäuser Str.", "hnr": "7", "hnr_zusatz": "", "plz": "06577", "ort": "An der Schmücke", "name": "Daniela Koch", "email": "daniela.koch79@web.de", "mobil": "+4915237737808", "festnetz": "+4934673778890", "typ": "EFH", "we": 1, "ge": 0, "zustimmung": "AGREED", "lat": 51.3099, "lng": 11.16999}, {"bid": "2225997", "strasse": "Oberheldrunger Str.", "hnr": "7", "hnr_zusatz": "", "plz": "06577", "ort": "An der Schmücke", "name": "Nico Hagedorn", "email": "nicohagedorn1@web.de", "mobil": "+491622657661", "festnetz": "+4934673159293", "typ": "EFH", "we": 1, "ge": 0, "zustimmung": "AGREED", "lat": 51.29934, "lng": 11.21539}, {"bid": "2225998", "strasse": "Arternsches Tor", "hnr": "21", "hnr_zusatz": "", "plz": "06577", "ort": "An der Schmücke", "name": "Hanz Heino Bauer", "email": "futtoura@t-online.de", "mobil": "+4915158188242", "festnetz": "+493467397248", "typ": "MFH", "we": 1, "ge": 1, "zustimmung": "AGREED", "lat": 51.30259, "lng": 11.22519}, {"bid": "2225993", "strasse": "Teichweg", "hnr": "5", "hnr_zusatz": "", "plz": "06577", "ort": "An der Schmücke", "name": "Hans-Joachim Zscheutzel", "email": "mzscheutzel@gmx.de", "mobil": "+4915203524055", "festnetz": "+493467390400", "typ": "EFH", "we": 1, "ge": 0, "zustimmung": "AGREED", "lat": 51.29769, "lng": 11.21655}, {"bid": "2225996", "strasse": "Baderstr.", "hnr": "15", "hnr_zusatz": "A", "plz": "06577", "ort": "An der Schmücke", "name": "Gerhard Brandt", "email": "alexa.kusch@web.de", "mobil": "+4917680127068", "festnetz": "+493467397753", "typ": "MFH", "we": 1, "ge": 1, "zustimmung": "AGREED", "lat": 51.30443, "lng": 11.21796}, {"bid": "2226000", "strasse": "Thomas-Müntzer-Str.", "hnr": "11", "hnr_zusatz": "", "plz": "06577", "ort": "An der Schmücke", "name": "B Schaller", "email": "bsobjektverw@web.de", "mobil": "", "festnetz": "+49363430421", "typ": "MFH", "we": 7, "ge": 0, "zustimmung": "AGREED", "lat": 51.30294, "lng": 11.22267}, {"bid": "2225992", "strasse": "Marktstr.", "hnr": "31", "hnr_zusatz": "", "plz": "06577", "ort": "An der Schmücke", "name": "Fritz Lange", "email": "lange.oldisleben@freenet.de", "mobil": "+4915253958620", "festnetz": "+4934673781922", "typ": "MFH", "we": 1, "ge": 1, "zustimmung": "AGREED", "lat": 51.30865, "lng": 11.17551}, {"bid": "2225999", "strasse": "Baderstr.", "hnr": "22", "hnr_zusatz": "", "plz": "06577", "ort": "An der Schmücke", "name": "Krasimir Kolev", "email": "dani06_1970@abv.bg", "mobil": "+491738526636", "festnetz": "+4934673649939", "typ": "EFH", "we": 1, "ge": 0, "zustimmung": "AGREED", "lat": 51.30308, "lng": 11.21731}, {"bid": "2226001", "strasse": "Ratsgasse", "hnr": "4", "hnr_zusatz": "", "plz": "06577", "ort": "An der Schmücke", "name": "Erika Schlücke", "email": "schlcke@aol.com", "mobil": "+491607904734", "festnetz": "+493467397716", "typ": "MFH", "we": 2, "ge": 0, "zustimmung": "AGREED", "lat": 51.30887, "lng": 11.17003}, {"bid": "2226009", "strasse": "Klostergasse", "hnr": "5", "hnr_zusatz": "", "plz": "06577", "ort": "An der Schmücke", "name": "Marek Krajcir", "email": "marek.krajcir7@gmail.com", "mobil": "+4917683850385", "festnetz": "+4934673691245", "typ": "MFH", "we": 1, "ge": 1, "zustimmung": "AGREED", "lat": 51.30703, "lng": 11.1733}, {"bid": "2226004", "strasse": "Karl-Marx-Str.", "hnr": "10", "hnr_zusatz": "", "plz": "06577", "ort": "An der Schmücke", "name": "Hans-Jürgen Rabald", "email": "fisch-rab@t-online.de", "mobil": "+4915150015984", "festnetz": "+4934673774834", "typ": "EFH", "we": 1, "ge": 0, "zustimmung": "AGREED", "lat": 51.30816, "lng": 11.17047}, {"bid": "2226010", "strasse": "Teichweg", "hnr": "42", "hnr_zusatz": "", "plz": "06577", "ort": "An der Schmücke", "name": "Peter Große", "email": "zwiebelkoenig@t-online.de", "mobil": "+491723601131", "festnetz": "+493467397399", "typ": "MFH", "we": 1, "ge": 1, "zustimmung": "AGREED", "lat": 51.29702, "lng": 11.21836}, {"bid": "2226002", "strasse": "Sackgasse", "hnr": "13", "hnr_zusatz": "", "plz": "06577", "ort": "An der Schmücke", "name": "Danielle Schneider", "email": "simoncaunt@yahoo.de", "mobil": "+4915164657380", "festnetz": "+4934673779821", "typ": "MFH", "we": 1, "ge": 1, "zustimmung": "AGREED", "lat": 51.30426, "lng": 11.17447}, {"bid": "2226006", "strasse": "Hauptstr.", "hnr": "18", "hnr_zusatz": "", "plz": "06577", "ort": "An der Schmücke", "name": "Matthias Ramm", "email": "birkla.ramm@gmail.com", "mobil": "", "festnetz": "+4936343427160", "typ": "MFH", "we": 3, "ge": 3, "zustimmung": "PENDING", "lat": 51.30148, "lng": 11.21771}, {"bid": "2226012", "strasse": "Marktstr.", "hnr": "19", "hnr_zusatz": "A", "plz": "06577", "ort": "An der Schmücke", "name": "Frank Büttner", "email": "frank_silke.buettner@online.de", "mobil": "+491728663518", "festnetz": "+491728663518", "typ": "EFH", "we": 1, "ge": 0, "zustimmung": "AGREED", "lat": 51.30927, "lng": 11.17426}, {"bid": "2226008", "strasse": "Mühlstr.", "hnr": "9", "hnr_zusatz": "", "plz": "06577", "ort": "An der Schmücke", "name": "Ivonne Kupfernagel", "email": "heikokupfernagel@t-online.de", "mobil": "+4916096385652", "festnetz": "+4916096385652", "typ": "EFH", "we": 1, "ge": 0, "zustimmung": "AGREED", "lat": 51.30022, "lng": 11.22448}, {"bid": "2226013", "strasse": "Thomas-Müntzer-Str.", "hnr": "5", "hnr_zusatz": "", "plz": "06577", "ort": "An der Schmücke", "name": "Schäffer WohnART GmbH", "email": "info@schaeffer-wohnart.de", "mobil": "+4915116166010", "festnetz": "+493467377670", "typ": "EFH", "we": 1, "ge": 0, "zustimmung": "AGREED", "lat": 51.3027, "lng": 11.22021}, {"bid": "2226016", "strasse": "Nachtigallenweg", "hnr": "5", "hnr_zusatz": "", "plz": "06577", "ort": "An der Schmücke", "name": "Matthias Pötzschke", "email": "katwei1207@t-online.de", "mobil": "+491743462592", "festnetz": "+493467397379", "typ": "MFH", "we": 1, "ge": 1, "zustimmung": "AGREED", "lat": 51.29869, "lng": 11.21348}, {"bid": "2226021", "strasse": "Frankenhäuser Str.", "hnr": "9", "hnr_zusatz": "", "plz": "06577", "ort": "An der Schmücke", "name": "Frank Mosig", "email": "551126705179-0001@t-online.de", "mobil": "+491709347758", "festnetz": "+493467391059", "typ": "EFH", "we": 1, "ge": 0, "zustimmung": "AGREED", "lat": 51.30993, "lng": 11.16984}, {"bid": "2226024", "strasse": "Karl-Liebknecht-Str.", "hnr": "30", "hnr_zusatz": "", "plz": "06577", "ort": "An der Schmücke", "name": "Silvia Röber", "email": "silvia.friseur@gmx.de", "mobil": "+491627211202", "festnetz": "", "typ": "MFH", "we": 1, "ge": 1, "zustimmung": "AGREED", "lat": 51.30821, "lng": 11.1667}, {"bid": "2226020", "strasse": "Frankenhäuser Str.", "hnr": "17", "hnr_zusatz": "", "plz": "06577", "ort": "An der Schmücke", "name": "Christopher Schulze", "email": "schulze_christopher@t-online.de", "mobil": "+4915144676862", "festnetz": "", "typ": "EFH", "we": 1, "ge": 0, "zustimmung": "AGREED", "lat": 51.31012, "lng": 11.16922}, {"bid": "2226029", "strasse": "Nachtigallenweg", "hnr": "3", "hnr_zusatz": "", "plz": "06577", "ort": "An der Schmücke", "name": "Helga Hesse", "email": "speedy540@gmx.de", "mobil": "+491744335425", "festnetz": "+4934673155441", "typ": "EFH", "we": 1, "ge": 0, "zustimmung": "AGREED", "lat": 51.29841, "lng": 11.21316}, {"bid": "2226030", "strasse": "Sperlingsberg", "hnr": "3", "hnr_zusatz": "", "plz": "06577", "ort": "An der Schmücke", "name": "Lutz Koch", "email": "regina6003@gmx.de", "mobil": "+491736888651", "festnetz": "+493467390064", "typ": "EFH", "we": 1, "ge": 0, "zustimmung": "AGREED", "lat": 51.30886, "lng": 11.17044}, {"bid": "2226015", "strasse": "Amselweg", "hnr": "7", "hnr_zusatz": "", "plz": "06577", "ort": "An der Schmücke", "name": "Gesine Krauthause", "email": "gesine.krauthause@web.de", "mobil": "+4915223191832", "festnetz": "", "typ": "EFH", "we": 1, "ge": 0, "zustimmung": "AGREED", "lat": 51.29894, "lng": 11.21303}, {"bid": "2226014", "strasse": "Teichweg", "hnr": "51", "hnr_zusatz": "", "plz": "06577", "ort": "An der Schmücke", "name": "Helga Jäger", "email": "551003932489-0001@t-online.de", "mobil": "+4915141663793", "festnetz": "+493467397403", "typ": "EFH", "we": 1, "ge": 0, "zustimmung": "AGREED", "lat": 51.29789, "lng": 11.21519}, {"bid": "2226023", "strasse": "Hauptstr.", "hnr": "13", "hnr_zusatz": "", "plz": "06577", "ort": "An der Schmücke", "name": "Hans-Joachim Schoder", "email": "h.schoder@trfv.de", "mobil": "+491717168797", "festnetz": "+493467398027", "typ": "EFH", "we": 1, "ge": 0, "zustimmung": "AGREED", "lat": 51.3015, "lng": 11.21877}, {"bid": "2226032", "strasse": "Oberheldrunger Str.", "hnr": "19", "hnr_zusatz": "", "plz": "06577", "ort": "An der Schmücke", "name": "Adrian Ehrhard", "email": "Adrian.ehrhard@gmx.de", "mobil": "+4915156001238", "festnetz": "", "typ": "EFH", "we": 1, "ge": 0, "zustimmung": "AGREED", "lat": 51.29824, "lng": 11.21479}, {"bid": "2226042", "strasse": "Klostergasse", "hnr": "6", "hnr_zusatz": "", "plz": "06577", "ort": "An der Schmücke", "name": "Andreas Günther", "email": "magic1ag@t-online.de", "mobil": "+491743328775", "festnetz": "", "typ": "EFH", "we": 1, "ge": 0, "zustimmung": "AGREED", "lat": 51.30761, "lng": 11.17343}, {"bid": "2226031", "strasse": "Mühlstr.", "hnr": "16", "hnr_zusatz": "", "plz": "06577", "ort": "An der Schmücke", "name": "Axel Bracke", "email": "axel-bracke@t-online.de", "mobil": "+4915141634780", "festnetz": "+493467390306", "typ": "EFH", "we": 1, "ge": 0, "zustimmung": "AGREED", "lat": 51.30048, "lng": 11.22392}, {"bid": "2226039", "strasse": "Teichweg", "hnr": "44", "hnr_zusatz": "", "plz": "06577", "ort": "An der Schmücke", "name": "Nadine Schreiber", "email": "uwe-schreiber@web.de", "mobil": "+491739640870", "festnetz": "", "typ": "EFH", "we": 1, "ge": 0, "zustimmung": "AGREED", "lat": 51.29713, "lng": 11.21808}, {"bid": "2226038", "strasse": "Karl-Marx-Str.", "hnr": "1", "hnr_zusatz": "A", "plz": "06577", "ort": "An der Schmücke", "name": "Ute Röse", "email": "ute.roese@freenet.de", "mobil": "+491727844675", "festnetz": "+493467391546", "typ": "MFH", "we": 2, "ge": 1, "zustimmung": "AGREED", "lat": 51.3096, "lng": 11.1713}, {"bid": "2226034", "strasse": "Arternsches Tor", "hnr": "6", "hnr_zusatz": "", "plz": "06577", "ort": "An der Schmücke", "name": "Cathleen Balej", "email": "cathleen.teich@web.de", "mobil": "+4915234587469", "festnetz": "+4934673188558", "typ": "EFH", "we": 1, "ge": 0, "zustimmung": "AGREED", "lat": 51.30211, "lng": 11.22251}, {"bid": "2226044", "strasse": "Backhausgasse", "hnr": "1", "hnr_zusatz": "", "plz": "06577", "ort": "An der Schmücke", "name": "Bettina Finke", "email": "finke.tina1@gmail.com", "mobil": "+49176630129127", "festnetz": "+49176630129127", "typ": "EFH", "we": 1, "ge": 0, "zustimmung": "AGREED", "lat": 51.30858, "lng": 11.17466}, {"bid": "2226036", "strasse": "Am Wässerchen", "hnr": "4", "hnr_zusatz": "", "plz": "06577", "ort": "An der Schmücke", "name": "Cornelia Schlücke", "email": "connyschlucke@gmail.com", "mobil": "+491628805031", "festnetz": "", "typ": "EFH", "we": 1, "ge": 0, "zustimmung": "AGREED", "lat": 51.30035, "lng": 11.22156}, {"bid": "2226041", "strasse": "Baderstr.", "hnr": "26", "hnr_zusatz": "", "plz": "06577", "ort": "An der Schmücke", "name": "Jan Bärwinkel", "email": "Jan.Baerwinkel@t-online.de", "mobil": "+491709083711", "festnetz": "+4934673168788", "typ": "EFH", "we": 1, "ge": 0, "zustimmung": "AGREED", "lat": 51.30226, "lng": 11.21708}, {"bid": "2226045", "strasse": "Hauptstr.", "hnr": "15", "hnr_zusatz": "", "plz": "06577", "ort": "An der Schmücke", "name": "Uwe und Erich Müller", "email": "uwemueller661960@gmx.de", "mobil": "+4915156379204", "festnetz": "+493467391767", "typ": "EFH", "we": 1, "ge": 0, "zustimmung": "AGREED", "lat": 51.30152, "lng": 11.21829}, {"bid": "2226053", "strasse": "Thomas-Müntzer-Str.", "hnr": "13", "hnr_zusatz": "", "plz": "06577", "ort": "An der Schmücke", "name": "Sven Pulter", "email": "sven.pulter@t-online.de", "mobil": "+491717658495", "festnetz": "+493467377693", "typ": "EFH", "we": 1, "ge": 0, "zustimmung": "AGREED", "lat": 51.30353, "lng": 11.22226}, {"bid": "2226046", "strasse": "Karl-Marx-Str.", "hnr": "37", "hnr_zusatz": "", "plz": "06577", "ort": "An der Schmücke", "name": "Christine Stolberg", "email": "christine-stolberg@web.de", "mobil": "+4915209886403", "festnetz": "+4915209886403", "typ": "EFH", "we": 1, "ge": 0, "zustimmung": "PENDING", "lat": 51.30412, "lng": 11.17328}, {"bid": "2226057", "strasse": "Karl-Marx-Str.", "hnr": "2", "hnr_zusatz": "", "plz": "06577", "ort": "An der Schmücke", "name": "Betina Reinhardt", "email": "betinareinhardt55@web.de", "mobil": "+491621897974", "festnetz": "+493467391719", "typ": "EFH", "we": 1, "ge": 0, "zustimmung": "AGREED", "lat": 51.30952, "lng": 11.17082}, {"bid": "2226052", "strasse": "An der Mönchskappe", "hnr": "4", "hnr_zusatz": "", "plz": "06577", "ort": "An der Schmücke", "name": "Torsten Bradtke", "email": "torsten.bradtke@t-online.de", "mobil": "+491628811325", "festnetz": "", "typ": "EFH", "we": 1, "ge": 0, "zustimmung": "AGREED", "lat": 51.30877, "lng": 11.16487}, {"bid": "2226055", "strasse": "Wallstr.", "hnr": "29", "hnr_zusatz": "A", "plz": "06577", "ort": "An der Schmücke", "name": "Stefan Hunger", "email": "sge_ohio@web.de", "mobil": "+4915237391893", "festnetz": "", "typ": "EFH", "we": 1, "ge": 0, "zustimmung": "AGREED", "lat": 51.30105, "lng": 11.21944}, {"bid": "2226051", "strasse": "Gorslebener Weg", "hnr": "10", "hnr_zusatz": "", "plz": "06577", "ort": "An der Schmücke", "name": "Maik Balthasar", "email": "maik.balthasar@web.de", "mobil": "+491725927956", "festnetz": "", "typ": "EFH", "we": 1, "ge": 0, "zustimmung": "AGREED", "lat": 51.2978, "lng": 11.21314}, {"bid": "2226056", "strasse": "Sackgasse", "hnr": "11", "hnr_zusatz": "", "plz": "06577", "ort": "An der Schmücke", "name": "Hannelore Steinacker", "email": "Hannelore.Steinacker@t-online.de", "mobil": "+491741772640", "festnetz": "+493467397778", "typ": "EFH", "we": 1, "ge": 0, "zustimmung": "AGREED", "lat": 51.30471, "lng": 11.17429}, {"bid": "2226047", "strasse": "Karl-Marx-Str.", "hnr": "15", "hnr_zusatz": "A", "plz": "06577", "ort": "An der Schmücke", "name": "Stephanie Weis", "email": "stweis77@googlemail.com", "mobil": "+4915259760572", "festnetz": "", "typ": "EFH", "we": 1, "ge": 0, "zustimmung": "AGREED", "lat": 51.30807, "lng": 11.17094}, {"bid": "2226059", "strasse": "Arternsches Tor", "hnr": "9", "hnr_zusatz": "", "plz": "06577", "ort": "An der Schmücke", "name": "Thomas Ludwig", "email": "malermeisterludwig@t-online.de", "mobil": "+491735989040", "festnetz": "", "typ": "MFH", "we": 1, "ge": 1, "zustimmung": "AGREED", "lat": 51.30253, "lng": 11.22278}, {"bid": "2226064", "strasse": "Gartenstr.", "hnr": "10", "hnr_zusatz": "B", "plz": "06577", "ort": "An der Schmücke", "name": "Barbara Genter", "email": "barbara.genter@gmx.de", "mobil": "+4915774936195", "festnetz": "+493467397819", "typ": "EFH", "we": 1, "ge": 0, "zustimmung": "AGREED", "lat": 51.29621, "lng": 11.21798}, {"bid": "2226058", "strasse": "Feldstr.", "hnr": "6", "hnr_zusatz": "", "plz": "06577", "ort": "An der Schmücke", "name": "Gunhild Puchtler-Christoph", "email": "gunhildp-c.64@web.de", "mobil": "+4917680097974", "festnetz": "+493467397303", "typ": "EFH", "we": 1, "ge": 0, "zustimmung": "AGREED", "lat": 51.30155, "lng": 11.22466}, {"bid": "2226061", "strasse": "Klostergasse", "hnr": "7", "hnr_zusatz": "", "plz": "06577", "ort": "An der Schmücke", "name": "Ralf Fiedler", "email": "fiedler.oleben@gmx.de", "mobil": "+4917643394942", "festnetz": "+493467318455", "typ": "EFH", "we": 1, "ge": 0, "zustimmung": "AGREED", "lat": 51.30696, "lng": 11.17332}, {"bid": "2226066", "strasse": "Münstergasse", "hnr": "2", "hnr_zusatz": "", "plz": "06577", "ort": "An der Schmücke", "name": "Silvio Seidel", "email": "sj.seidel@t-online.de", "mobil": "+491725823578", "festnetz": "", "typ": "EFH", "we": 1, "ge": 0, "zustimmung": "AGREED", "lat": 51.30947, "lng": 11.17027}, {"bid": "2226068", "strasse": "Sperlingsberg", "hnr": "2", "hnr_zusatz": "", "plz": "06577", "ort": "An der Schmücke", "name": "Klaus-Dieter und Ingeborg Mocke", "email": "i-mocke@t-online.de", "mobil": "+4917657977290", "festnetz": "+493467391604", "typ": "EFH", "we": 1, "ge": 0, "zustimmung": "AGREED", "lat": 51.30898, "lng": 11.1706}, {"bid": "2226071", "strasse": "Teichweg", "hnr": "14", "hnr_zusatz": "", "plz": "06577", "ort": "An der Schmücke", "name": "Martin Müller", "email": "martin1207@online.de", "mobil": "+4915221623578", "festnetz": "+4934673157402", "typ": "MFH", "we": 2, "ge": 0, "zustimmung": "AGREED", "lat": 51.29731, "lng": 11.21782}, {"bid": "2226070", "strasse": "Neue Str.", "hnr": "1", "hnr_zusatz": "", "plz": "06577", "ort": "An der Schmücke", "name": "Nadine Beyer", "email": "zwiebel.chen@t-online.de", "mobil": "+4916098491199", "festnetz": "+493467378038", "typ": "EFH", "we": 1, "ge": 0, "zustimmung": "AGREED", "lat": 51.30947, "lng": 11.16874}, {"bid": "2226069", "strasse": "Wallstr.", "hnr": "27", "hnr_zusatz": "", "plz": "06577", "ort": "An der Schmücke", "name": "Annelise Jäger", "email": "jaeger-heldrungen@arcor.de", "mobil": "+4917673559658", "festnetz": "+4917673559658", "typ": "EFH", "we": 1, "ge": 0, "zustimmung": "AGREED", "lat": 51.30114, "lng": 11.21863}, {"bid": "2226076", "strasse": "Neue Str.", "hnr": "22", "hnr_zusatz": "", "plz": "06577", "ort": "An der Schmücke", "name": "Karsten Stille", "email": "katja-besler20@web.de", "mobil": "+491621543261", "festnetz": "", "typ": "EFH", "we": 1, "ge": 0, "zustimmung": "AGREED", "lat": 51.3087, "lng": 11.16759}, {"bid": "2226074", "strasse": "Klostergasse", "hnr": "14", "hnr_zusatz": "", "plz": "06577", "ort": "An der Schmücke", "name": "Tobias Rilk", "email": "tobias.rilk@gmail.com", "mobil": "+491736476898", "festnetz": "+4934673779701", "typ": "EFH", "we": 1, "ge": 0, "zustimmung": "AGREED", "lat": 51.30616, "lng": 11.17277}, {"bid": "2226080", "strasse": "Teichweg", "hnr": "1", "hnr_zusatz": "", "plz": "06577", "ort": "An der Schmücke", "name": "Stefan Keßner", "email": "stefan.kessner@yahoo.de", "mobil": "+491737466688", "festnetz": "+4934673789215", "typ": "EFH", "we": 1, "ge": 0, "zustimmung": "AGREED", "lat": 51.29789, "lng": 11.2157}, {"bid": "2226077", "strasse": "Am Wässerchen", "hnr": "8", "hnr_zusatz": "", "plz": "06577", "ort": "An der Schmücke", "name": "Angelika Biele", "email": "bieleangelika4@gmail.com", "mobil": "+491628265423", "festnetz": "+493467397244", "typ": "EFH", "we": 1, "ge": 0, "zustimmung": "AGREED", "lat": 51.30023, "lng": 11.22207}, {"bid": "2226087", "strasse": "Mühlstr.", "hnr": "18", "hnr_zusatz": "", "plz": "06577", "ort": "An der Schmücke", "name": "Armin Wolf", "email": "m-pollin@gmx.de", "mobil": "+491725243319", "festnetz": "+493467391480", "typ": "EFH", "we": 1, "ge": 0, "zustimmung": "AGREED", "lat": 51.30058, "lng": 11.2237}, {"bid": "2226072", "strasse": "Gorslebener Weg", "hnr": "11", "hnr_zusatz": "", "plz": "06577", "ort": "An der Schmücke", "name": "Reiner Heinecke", "email": "r.h-e@gmx.de", "mobil": "+4915226488680", "festnetz": "+493467397882", "typ": "EFH", "we": 1, "ge": 0, "zustimmung": "AGREED", "lat": 51.29816, "lng": 11.21421}, {"bid": "2226081", "strasse": "Karl-Marx-Str.", "hnr": "46", "hnr_zusatz": "", "plz": "06577", "ort": "An der Schmücke", "name": "Marcel Heise", "email": "m.slech@web.de", "mobil": "+4916096242734", "festnetz": "", "typ": "EFH", "we": 1, "ge": 0, "zustimmung": "AGREED", "lat": 51.30267, "lng": 11.17303}, {"bid": "2226082", "strasse": "Ernst-Thälmann-Str.", "hnr": "9", "hnr_zusatz": "", "plz": "06577", "ort": "An der Schmücke", "name": "Rolf Lange", "email": "globetrotter28101968@web.de", "mobil": "+491625981050", "festnetz": "+493467397382", "typ": "EFH", "we": 1, "ge": 0, "zustimmung": "AGREED", "lat": 51.30995, "lng": 11.16444}, {"bid": "2226086", "strasse": "Bahnhofstr.", "hnr": "23", "hnr_zusatz": "", "plz": "06577", "ort": "An der Schmücke", "name": "Gerd Held", "email": "annette.held@web.de", "mobil": "+4915252835233", "festnetz": "+493467398444", "typ": "EFH", "we": 1, "ge": 0, "zustimmung": "AGREED", "lat": 51.29997, "lng": 11.21405}, {"bid": "2226088", "strasse": "Frankenhäuser Str.", "hnr": "1", "hnr_zusatz": "", "plz": "06577", "ort": "An der Schmücke", "name": "Enrico Ballhausen", "email": "e.ballhausen@gmx.de", "mobil": "+491746667922", "festnetz": "", "typ": "MFH", "we": 1, "ge": 1, "zustimmung": "AGREED", "lat": 51.30973, "lng": 11.17083}, {"bid": "2226095", "strasse": "Karl-Marx-Str.", "hnr": "40", "hnr_zusatz": "", "plz": "06577", "ort": "An der Schmücke", "name": "Daniel Bödler", "email": "danielboedler@freenet.de", "mobil": "+491727894698", "festnetz": "+4934673690790", "typ": "EFH", "we": 1, "ge": 0, "zustimmung": "AGREED", "lat": 51.30356, "lng": 11.17328}, {"bid": "2226103", "strasse": "Am Wässerchen", "hnr": "2", "hnr_zusatz": "", "plz": "06577", "ort": "An der Schmücke", "name": "Karin Fricke", "email": "fricke-heldrungen@t-online.de", "mobil": "+4917683719711", "festnetz": "+493467397241", "typ": "EFH", "we": 1, "ge": 0, "zustimmung": "AGREED", "lat": 51.30041, "lng": 11.22128}, {"bid": "2226096", "strasse": "Frankenhäuser Str.", "hnr": "2", "hnr_zusatz": "", "plz": "06577", "ort": "An der Schmücke", "name": "Johannes Reichert", "email": "reichert-74@gmail.de", "mobil": "+491713122562", "festnetz": "+493467397589", "typ": "MFH", "we": 1, "ge": 1, "zustimmung": "AGREED", "lat": 51.31009, "lng": 11.17043}, {"bid": "2226090", "strasse": "Weststr.", "hnr": "10", "hnr_zusatz": "", "plz": "06577", "ort": "An der Schmücke", "name": "Tim Schinköthe", "email": "tim.schinkoethe@gmx.de", "mobil": "+491731636023", "festnetz": "+4934673204676", "typ": "EFH", "we": 1, "ge": 0, "zustimmung": "AGREED", "lat": 51.30947, "lng": 11.16755}, {"bid": "2226101", "strasse": "Bretlebener Weg", "hnr": "3", "hnr_zusatz": "", "plz": "06577", "ort": "An der Schmücke", "name": "Vermietung und Verpachtung", "email": "Mathias.lange@roma-handel.de", "mobil": "+4915118310751", "festnetz": "", "typ": "EFH", "we": 1, "ge": 0, "zustimmung": "PENDING", "lat": 51.31046, "lng": 11.17222}, {"bid": "2226089", "strasse": "Karlsbader Str.", "hnr": "2", "hnr_zusatz": "", "plz": "06577", "ort": "An der Schmücke", "name": "Detlef Müller", "email": "dsm1984@t-online.de", "mobil": "+491751960896", "festnetz": "+493467398066", "typ": "EFH", "we": 1, "ge": 0, "zustimmung": "AGREED", "lat": 51.29835, "lng": 11.21184}, {"bid": "2226099", "strasse": "Lange Str.", "hnr": "20", "hnr_zusatz": "", "plz": "06577", "ort": "An der Schmücke", "name": "Marcel Stolberg", "email": "sandra.stolberg@web.de", "mobil": "+4915252987198", "festnetz": "+4934673169223", "typ": "EFH", "we": 1, "ge": 0, "zustimmung": "AGREED", "lat": 51.30229, "lng": 11.21498}, {"bid": "2226092", "strasse": "Wallstr.", "hnr": "32", "hnr_zusatz": "", "plz": "06577", "ort": "An der Schmücke", "name": "Gert Awiszus", "email": "larswt77@gmail.com", "mobil": "+4915207099468", "festnetz": "", "typ": "EFH", "we": 1, "ge": 0, "zustimmung": "AGREED", "lat": 51.30103, "lng": 11.21995}, {"bid": "2226107", "strasse": "Schloßstr.", "hnr": "11", "hnr_zusatz": "", "plz": "06577", "ort": "An der Schmücke", "name": "Jörg Bärwinkel", "email": "joergbaerwinkel@icloud.com", "mobil": "+491757348979", "festnetz": "+493467397365", "typ": "EFH", "we": 1, "ge": 0, "zustimmung": "AGREED", "lat": 51.30016, "lng": 11.21995}, {"bid": "2226112", "strasse": "St. Wigberti-Str.", "hnr": "2", "hnr_zusatz": "", "plz": "06577", "ort": "An der Schmücke", "name": "Matthias Körner", "email": "sandra.koerner@gmx.de", "mobil": "+491717790550", "festnetz": "+493467390222", "typ": "EFH", "we": 1, "ge": 0, "zustimmung": "AGREED", "lat": 51.30289, "lng": 11.21631}, {"bid": "2226109", "strasse": "Waldstr.", "hnr": "2", "hnr_zusatz": "", "plz": "06577", "ort": "An der Schmücke", "name": "Ruth Graf", "email": "grafrsen@web.de", "mobil": "+4915233892181", "festnetz": "+49346797970", "typ": "EFH", "we": 1, "ge": 0, "zustimmung": "AGREED", "lat": 51.30976, "lng": 11.16942}, {"bid": "2226104", "strasse": "Amselweg", "hnr": "11", "hnr_zusatz": "", "plz": "06577", "ort": "An der Schmücke", "name": "Dieter Markus", "email": "markus.heldrungen@freenet.de", "mobil": "+4915758352690", "festnetz": "+493467396126", "typ": "EFH", "we": 1, "ge": 0, "zustimmung": "AGREED", "lat": 51.29834, "lng": 11.21236}, {"bid": "2226115", "strasse": "Neue Str.", "hnr": "23", "hnr_zusatz": "", "plz": "06577", "ort": "An der Schmücke", "name": "Klaus Krumbholz", "email": "kkrumbholz@gmx.de", "mobil": "+491739657945", "festnetz": "+493467399047", "typ": "EFH", "we": 1, "ge": 0, "zustimmung": "AGREED", "lat": 51.3087, "lng": 11.16738}, {"bid": "2226117", "strasse": "Karl-Marx-Str.", "hnr": "11", "hnr_zusatz": "", "plz": "06577", "ort": "An der Schmücke", "name": "KM11", "email": "markus.roese@allianz.de", "mobil": "", "festnetz": "+493467378944", "typ": "MFH", "we": 2, "ge": 0, "zustimmung": "AGREED", "lat": 51.30861, "lng": 11.17095}, {"bid": "2226113", "strasse": "Schulberg", "hnr": "6", "hnr_zusatz": "", "plz": "06577", "ort": "An der Schmücke", "name": "Marina Jäger", "email": "strandgrass@web.de", "mobil": "+491712312310", "festnetz": "+493467396007", "typ": "EFH", "we": 1, "ge": 0, "zustimmung": "AGREED", "lat": 51.30752, "lng": 11.16978}, {"bid": "2226106", "strasse": "Lange Str.", "hnr": "33", "hnr_zusatz": "", "plz": "06577", "ort": "An der Schmücke", "name": "Uwe Klank", "email": "uwe.klank@web.de", "mobil": "+491749164610", "festnetz": "", "typ": "EFH", "we": 1, "ge": 0, "zustimmung": "AGREED", "lat": 51.30376, "lng": 11.21572}, {"bid": "2226108", "strasse": "Thomas-Müntzer-Str.", "hnr": "23", "hnr_zusatz": "", "plz": "06577", "ort": "An der Schmücke", "name": "Axel Nix", "email": "axel.nix@gmx.net", "mobil": "+491743276779", "festnetz": "+4934673799291", "typ": "EFH", "we": 1, "ge": 0, "zustimmung": "AGREED", "lat": 51.30336, "lng": 11.22321}, {"bid": "2226125", "strasse": "Thomas-Müntzer-Str.", "hnr": "15", "hnr_zusatz": "", "plz": "06577", "ort": "An der Schmücke", "name": "Vanessa Urbanski", "email": "marcohenfling@gmx.net", "mobil": "+491742757335", "festnetz": "", "typ": "EFH", "we": 1, "ge": 0, "zustimmung": "AGREED", "lat": 51.30346, "lng": 11.22178}, {"bid": "2226128", "strasse": "Lange Str.", "hnr": "53", "hnr_zusatz": "A", "plz": "06577", "ort": "An der Schmücke", "name": "Helmut Bruder", "email": "imson@gmx.de", "mobil": "+491722610860", "festnetz": "+493467397331", "typ": "EFH", "we": 1, "ge": 0, "zustimmung": "AGREED", "lat": 51.30042, "lng": 11.2143}, {"bid": "2226137", "strasse": "Feldstr.", "hnr": "1", "hnr_zusatz": "A", "plz": "06577", "ort": "An der Schmücke", "name": "Marcel Korn", "email": "marcelkorn7@gmail.com", "mobil": "+4917663364226", "festnetz": "", "typ": "EFH", "we": 1, "ge": 0, "zustimmung": "AGREED", "lat": 51.30162, "lng": 11.22351}, {"bid": "2226139", "strasse": "Karlsbader Str.", "hnr": "5", "hnr_zusatz": "", "plz": "06577", "ort": "An der Schmücke", "name": "Andreas Vollmering", "email": "andreasvollmering@web.de", "mobil": "+491731722642", "festnetz": "+4934673783554", "typ": "MFH", "we": 1, "ge": 1, "zustimmung": "AGREED", "lat": 51.29846, "lng": 11.21149}, {"bid": "2226140", "strasse": "Lange Str.", "hnr": "11", "hnr_zusatz": "", "plz": "06577", "ort": "An der Schmücke", "name": "Stephan Schenk", "email": "stephan1schenk@t-online.de", "mobil": "+491723735276", "festnetz": "+493467396768", "typ": "EFH", "we": 1, "ge": 0, "zustimmung": "AGREED", "lat": 51.30169, "lng": 11.21471}, {"bid": "2226142", "strasse": "Karl-Liebknecht-Str.", "hnr": "16", "hnr_zusatz": "A", "plz": "06577", "ort": "An der Schmücke", "name": "Home&Garden", "email": "hg_dienstleistungen@gmx.net", "mobil": "", "festnetz": "+4934673789179", "typ": "MFH", "we": 5, "ge": 0, "zustimmung": "PENDING", "lat": 51.30462, "lng": 11.17201}, {"bid": "2226126", "strasse": "Oberheldrunger Str.", "hnr": "9", "hnr_zusatz": "", "plz": "06577", "ort": "An der Schmücke", "name": "Jürgen Hübner", "email": "dorishuebner2512@gmail.com", "mobil": "+4915735709287", "festnetz": "+493467378310", "typ": "EFH", "we": 1, "ge": 0, "zustimmung": "AGREED", "lat": 51.29922, "lng": 11.21532}, {"bid": "2226141", "strasse": "Karlsbader Str.", "hnr": "1", "hnr_zusatz": "", "plz": "06577", "ort": "An der Schmücke", "name": "Sandy Sehmisch", "email": "sandy.sehmisch@gmx.net", "mobil": "+4917682108195", "festnetz": "+4934673691266", "typ": "EFH", "we": 1, "ge": 0, "zustimmung": "AGREED", "lat": 51.2983, "lng": 11.21195}, {"bid": "2226132", "strasse": "Hauptstr.", "hnr": "63", "hnr_zusatz": "", "plz": "06577", "ort": "An der Schmücke", "name": "Gerhard Lippold", "email": "andreaslippold76@gmail.com", "mobil": "+4917632313162", "festnetz": "+493467390224", "typ": "MFH", "we": 1, "ge": 1, "zustimmung": "AGREED", "lat": 51.30159, "lng": 11.22073}, {"bid": "2226145", "strasse": "Teichweg", "hnr": "45", "hnr_zusatz": "", "plz": "06577", "ort": "An der Schmücke", "name": "Lisa Jäger", "email": "Lisajaeger2509@t-online.de", "mobil": "+491731835745", "festnetz": "", "typ": "EFH", "we": 1, "ge": 0, "zustimmung": "AGREED", "lat": 51.29715, "lng": 11.21802}, {"bid": "2226153", "strasse": "Lange Str.", "hnr": "15", "hnr_zusatz": "A", "plz": "06577", "ort": "An der Schmücke", "name": "Jens Straßburg", "email": "jensstrassburg1968@gmail.com", "mobil": "+491723512332", "festnetz": "+4934673787917", "typ": "EFH", "we": 1, "ge": 0, "zustimmung": "AGREED", "lat": 51.30195, "lng": 11.21433}, {"bid": "2226147", "strasse": "Schillerstr.", "hnr": "16", "hnr_zusatz": "", "plz": "06577", "ort": "An der Schmücke", "name": "Heike Straßburg", "email": "burgcafe-heldrungen@t-online.de", "mobil": "+491624140929", "festnetz": "+493467397364", "typ": "MFH", "we": 1, "ge": 1, "zustimmung": "AGREED", "lat": 51.2993, "lng": 11.21115}, {"bid": "2226163", "strasse": "Bretlebener Weg", "hnr": "6", "hnr_zusatz": "", "plz": "06577", "ort": "An der Schmücke", "name": "Gerhard Kraft", "email": "gerkraold@web.de", "mobil": "+491795449044", "festnetz": "+493467397539", "typ": "EFH", "we": 1, "ge": 0, "zustimmung": "AGREED", "lat": 51.31045, "lng": 11.17315}, {"bid": "2226160", "strasse": "Mühlstr.", "hnr": "20", "hnr_zusatz": "", "plz": "06577", "ort": "An der Schmücke", "name": "Lothar Wolf", "email": "melaniepetrich2000@gmail.com", "mobil": "+4915123956164", "festnetz": "", "typ": "EFH", "we": 1, "ge": 0, "zustimmung": "AGREED", "lat": 51.30069, "lng": 11.22341}, {"bid": "2226144", "strasse": "Grabenstr.", "hnr": "9", "hnr_zusatz": "", "plz": "06577", "ort": "An der Schmücke", "name": "Dariusz Witkowski", "email": "dariuszwit@web.de", "mobil": "+4915171705721", "festnetz": "+4934673780436", "typ": "EFH", "we": 1, "ge": 0, "zustimmung": "AGREED", "lat": 51.30984, "lng": 11.16859}, {"bid": "2226146", "strasse": "Fritz-Hankel-Str.", "hnr": "6", "hnr_zusatz": "", "plz": "06577", "ort": "An der Schmücke", "name": "Isabel Wolf", "email": "isawolf1998@web.de", "mobil": "+4915203256275", "festnetz": "", "typ": "MFH", "we": 2, "ge": 0, "zustimmung": "AGREED", "lat": 51.31107, "lng": 11.16201}, {"bid": "2226156", "strasse": "Teichweg", "hnr": "2", "hnr_zusatz": "", "plz": "06577", "ort": "An der Schmücke", "name": "Hans-Peter Laske", "email": "hans-peterlaske@gmx.de", "mobil": "+4917646604104", "festnetz": "+4934673204879", "typ": "EFH", "we": 1, "ge": 0, "zustimmung": "AGREED", "lat": 51.29786, "lng": 11.21583}, {"bid": "2226149", "strasse": "Südstr.", "hnr": "4", "hnr_zusatz": "", "plz": "06577", "ort": "An der Schmücke", "name": "Klaus Lippold", "email": "die.lippolds@gmail.com", "mobil": "+4915750176703", "festnetz": "+4915750176703", "typ": "EFH", "we": 1, "ge": 0, "zustimmung": "AGREED", "lat": 51.29632, "lng": 11.21867}, {"bid": "2226165", "strasse": "Hauptstr.", "hnr": "36", "hnr_zusatz": "", "plz": "06577", "ort": "An der Schmücke", "name": "Miachela Hübner", "email": "koch-o@t-online.de", "mobil": "+4916097833655", "festnetz": "+493467391269", "typ": "MFH", "we": 1, "ge": 1, "zustimmung": "PENDING", "lat": 51.30029, "lng": 11.21573}, {"bid": "2226171", "strasse": "Amselweg", "hnr": "2", "hnr_zusatz": "", "plz": "06577", "ort": "An der Schmücke", "name": "Gerhard Verges", "email": "susettebroemme@web.de", "mobil": "+4915751608651", "festnetz": "+4934673779577", "typ": "EFH", "we": 1, "ge": 0, "zustimmung": "AGREED", "lat": 51.29859, "lng": 11.21231}, {"bid": "2226168", "strasse": "Ernst-Thälmann-Str.", "hnr": "18", "hnr_zusatz": "", "plz": "06577", "ort": "An der Schmücke", "name": "Tim Eckardt", "email": "morpheus-fv@mail.de", "mobil": "+491733872289", "festnetz": "+493467397543", "typ": "EFH", "we": 1, "ge": 0, "zustimmung": "AGREED", "lat": 51.31017, "lng": 11.16616}, {"bid": "2226164", "strasse": "Lange Str.", "hnr": "38", "hnr_zusatz": "", "plz": "06577", "ort": "An der Schmücke", "name": "Rosemarie Kelber", "email": "r-kelber@t-online.de", "mobil": "+491712951670", "festnetz": "+493467378666", "typ": "EFH", "we": 1, "ge": 0, "zustimmung": "AGREED", "lat": 51.304, "lng": 11.21602}, {"bid": "2226178", "strasse": "Bretlebener Weg", "hnr": "8", "hnr_zusatz": "", "plz": "06577", "ort": "An der Schmücke", "name": "Lindenhof Agrar GbR", "email": "lindenhof.agrar@t-online.de", "mobil": "+4915755179088", "festnetz": "+493467396269", "typ": "EFH", "we": 0, "ge": 1, "zustimmung": "AGREED", "lat": 51.30962, "lng": 11.17555}, {"bid": "2226176", "strasse": "Karl-Liebknecht-Str.", "hnr": "26", "hnr_zusatz": "", "plz": "06577", "ort": "An der Schmücke", "name": "Christel Helbing", "email": "christelhelbing@t-online.de", "mobil": "+491703269412", "festnetz": "+493467397962", "typ": "EFH", "we": 1, "ge": 0, "zustimmung": "AGREED", "lat": 51.307, "lng": 11.16867}, {"bid": "2226179", "strasse": "Teichweg", "hnr": "32", "hnr_zusatz": "", "plz": "06577", "ort": "An der Schmücke", "name": "Helmut Paulekat", "email": "helmut5121@yahoo.de", "mobil": "+4915118505033", "festnetz": "+4934673169761", "typ": "EFH", "we": 1, "ge": 0, "zustimmung": "AGREED", "lat": 51.29671, "lng": 11.21955}, {"bid": "2226180", "strasse": "Lange Str.", "hnr": "24", "hnr_zusatz": "A", "plz": "06577", "ort": "An der Schmücke", "name": "Ursula Nolle", "email": "ursula.nolle@t-online.de", "mobil": "+491626327770", "festnetz": "+493467397321", "typ": "EFH", "we": 1, "ge": 0, "zustimmung": "AGREED", "lat": 51.30304, "lng": 11.21466}, {"bid": "2226167", "strasse": "Querstr.", "hnr": "9", "hnr_zusatz": "", "plz": "06577", "ort": "An der Schmücke", "name": "Tanja Dietz", "email": "jensii.1@web.de", "mobil": "+491712208200", "festnetz": "+4934673788855", "typ": "EFH", "we": 1, "ge": 0, "zustimmung": "AGREED", "lat": 51.3002, "lng": 11.21416}, {"bid": "2226191", "strasse": "Bahnhofstr.", "hnr": "15", "hnr_zusatz": "", "plz": "06577", "ort": "An der Schmücke", "name": "Peter Heidenreich", "email": "inesheidenreich@gmx.de", "mobil": "+4915251391602", "festnetz": "+4934673789851", "typ": "MFH", "we": 3, "ge": 0, "zustimmung": "AGREED", "lat": 51.3005, "lng": 11.21223}, {"bid": "2226198", "strasse": "Finkenweg", "hnr": "11", "hnr_zusatz": "", "plz": "06577", "ort": "An der Schmücke", "name": "Heike Schreiber", "email": "tobias.schreiber92@web.de", "mobil": "+4915161061194", "festnetz": "+493467397979", "typ": "EFH", "we": 1, "ge": 0, "zustimmung": "AGREED", "lat": 51.29941, "lng": 11.21247}, {"bid": "2226189", "strasse": "Teichweg", "hnr": "28", "hnr_zusatz": "", "plz": "06577", "ort": "An der Schmücke", "name": "Uwe Martick", "email": "p.m.66@gmx.de", "mobil": "+491625952792", "festnetz": "", "typ": "MFH", "we": 1, "ge": 1, "zustimmung": "AGREED", "lat": 51.29651, "lng": 11.2203}, {"bid": "2226196", "strasse": "Mühlstr.", "hnr": "6", "hnr_zusatz": "", "plz": "06577", "ort": "An der Schmücke", "name": "Reiner Stadelmann", "email": "ralf-stadel@web.de", "mobil": "+491733747751", "festnetz": "+493467398083", "typ": "EFH", "we": 1, "ge": 0, "zustimmung": "AGREED", "lat": 51.30082, "lng": 11.2235}, {"bid": "2226181", "strasse": "Schulberg", "hnr": "7", "hnr_zusatz": "", "plz": "06577", "ort": "An der Schmücke", "name": "Dirk Amme", "email": "katrin.amme@freenet.de", "mobil": "+4915201318137", "festnetz": "+493467391837", "typ": "EFH", "we": 1, "ge": 0, "zustimmung": "AGREED", "lat": 51.30726, "lng": 11.1695}, {"bid": "2226187", "strasse": "Hauptstr.", "hnr": "53", "hnr_zusatz": "", "plz": "06577", "ort": "An der Schmücke", "name": "Gebäude und Immobilien service Oldisleben", "email": "info@gis-schulze.de", "mobil": "", "festnetz": "+4934673786506", "typ": "MFH", "we": 2, "ge": 0, "zustimmung": "PENDING", "lat": 51.30176, "lng": 11.21816}, {"bid": "2226200", "strasse": "Finkenweg", "hnr": "5", "hnr_zusatz": "", "plz": "06577", "ort": "An der Schmücke", "name": "Gerd Voigt", "email": "19heidi62@web.de", "mobil": "+4915202535097", "festnetz": "+493467390245", "typ": "EFH", "we": 1, "ge": 0, "zustimmung": "AGREED", "lat": 51.29952, "lng": 11.21219}, {"bid": "2226186", "strasse": "Gartenstr.", "hnr": "6", "hnr_zusatz": "", "plz": "06577", "ort": "An der Schmücke", "name": "Lothar Schenk", "email": "schenk-l@t-online.de", "mobil": "+4915757027721", "festnetz": "+493467397283", "typ": "EFH", "we": 1, "ge": 0, "zustimmung": "AGREED", "lat": 51.2952, "lng": 11.21952}, {"bid": "2226188", "strasse": "Oberheldrunger Str.", "hnr": "6", "hnr_zusatz": "", "plz": "06577", "ort": "An der Schmücke", "name": "Ursula Möder", "email": "ursulamoeder47@web.de", "mobil": "+491741537983", "festnetz": "+493467390813", "typ": "EFH", "we": 1, "ge": 0, "zustimmung": "AGREED", "lat": 51.29942, "lng": 11.21539}, {"bid": "2226202", "strasse": "Waldstr.", "hnr": "11", "hnr_zusatz": "", "plz": "06577", "ort": "An der Schmücke", "name": "Mirko Andreas", "email": "mirkoandreas643@gmail.com", "mobil": "+491629341453", "festnetz": "+493467378155", "typ": "EFH", "we": 1, "ge": 0, "zustimmung": "AGREED", "lat": 51.30867, "lng": 11.16845}, {"bid": "2226204", "strasse": "Lange Str.", "hnr": "36", "hnr_zusatz": "", "plz": "06577", "ort": "An der Schmücke", "name": "Marion Kulka", "email": "marion.kulka1959@googlemail.com", "mobil": "+491729809624", "festnetz": "", "typ": "EFH", "we": 1, "ge": 0, "zustimmung": "AGREED", "lat": 51.30426, "lng": 11.21538}, {"bid": "2226201", "strasse": "Teichweg", "hnr": "16", "hnr_zusatz": "", "plz": "06577", "ort": "An der Schmücke", "name": "Michael Jäger", "email": "karin-jaeger1969@t-online.de", "mobil": "+4915207976855", "festnetz": "+493467396530", "typ": "EFH", "we": 1, "ge": 0, "zustimmung": "AGREED", "lat": 51.29723, "lng": 11.21815}, {"bid": "2226208", "strasse": "Bretlebener Weg", "hnr": "12", "hnr_zusatz": "", "plz": "06577", "ort": "An der Schmücke", "name": "Pierre Fabiger", "email": "pumppf@gmx.de", "mobil": "+4915233598981", "festnetz": "+4934673781246", "typ": "EFH", "we": 1, "ge": 0, "zustimmung": "AGREED", "lat": 51.31106, "lng": 11.17425}, {"bid": "2226207", "strasse": "Feldstr.", "hnr": "8", "hnr_zusatz": "", "plz": "06577", "ort": "An der Schmücke", "name": "Rainer Tschierschwitz", "email": "taylorlivius2106@gmail.com", "mobil": "+4917035244577", "festnetz": "+493467390247", "typ": "EFH", "we": 1, "ge": 0, "zustimmung": "AGREED", "lat": 51.30153, "lng": 11.22498}, {"bid": "2226203", "strasse": "Amselweg", "hnr": "9", "hnr_zusatz": "", "plz": "06577", "ort": "An der Schmücke", "name": "Jens Ladig", "email": "r.baier-ladig@t-online.de", "mobil": "+491749066524", "festnetz": "", "typ": "EFH", "we": 1, "ge": 0, "zustimmung": "AGREED", "lat": 51.29863, "lng": 11.21267}, {"bid": "2226215", "strasse": "Gorslebener Weg", "hnr": "5", "hnr_zusatz": "", "plz": "06577", "ort": "An der Schmücke", "name": "Werner Wummel", "email": "u.boettcher43@gmx.de", "mobil": "+4915223281496", "festnetz": "+493467397291", "typ": "EFH", "we": 1, "ge": 0, "zustimmung": "AGREED", "lat": 51.29799, "lng": 11.21371}, {"bid": "2226205", "strasse": "Bretlebener Weg", "hnr": "9", "hnr_zusatz": "", "plz": "06577", "ort": "An der Schmücke", "name": "Robert Aschenbach", "email": "robert-aschenbach@t-online.de", "mobil": "+491748952077", "festnetz": "", "typ": "MFH", "we": 1, "ge": 1, "zustimmung": "AGREED", "lat": 51.31092, "lng": 11.17435}, {"bid": "2226209", "strasse": "Teichweg", "hnr": "12", "hnr_zusatz": "", "plz": "06577", "ort": "An der Schmücke", "name": "Roland Müller", "email": "551126103953-0001@t-online.de", "mobil": "+491602383605", "festnetz": "+493467390393", "typ": "EFH", "we": 1, "ge": 0, "zustimmung": "AGREED", "lat": 51.29741, "lng": 11.2175}, {"bid": "2226226", "strasse": "Weststr.", "hnr": "14", "hnr_zusatz": "", "plz": "06577", "ort": "An der Schmücke", "name": "Dieter Reinhardt", "email": "kat.mark@t-online.de", "mobil": "+491725970559", "festnetz": "+493467390748", "typ": "EFH", "we": 1, "ge": 0, "zustimmung": "AGREED", "lat": 51.30917, "lng": 11.16701}, {"bid": "2226218", "strasse": "Schulberg", "hnr": "5", "hnr_zusatz": "", "plz": "06577", "ort": "An der Schmücke", "name": "Sandra Vollbrecht", "email": "wohnung@sandra-lifedesign.de", "mobil": "+4915227419288", "festnetz": "+4934673169736", "typ": "MFH", "we": 5, "ge": 0, "zustimmung": "AGREED", "lat": 51.30734, "lng": 11.16975}, {"bid": "2226228", "strasse": "Teichweg", "hnr": "27", "hnr_zusatz": "", "plz": "06577", "ort": "An der Schmücke", "name": "Hannes Scharnowski", "email": "551134355456-0001@t-online.de", "mobil": "+491603052305", "festnetz": "+4934673787131", "typ": "EFH", "we": 1, "ge": 0, "zustimmung": "AGREED", "lat": 51.29646, "lng": 11.22042}, {"bid": "2226220", "strasse": "Weststr.", "hnr": "11", "hnr_zusatz": "", "plz": "06577", "ort": "An der Schmücke", "name": "Kevin Kerbs", "email": "k.kerbs@metex-stahlzargen.de", "mobil": "", "festnetz": "+491743068310", "typ": "EFH", "we": 1, "ge": 0, "zustimmung": "AGREED", "lat": 51.30933, "lng": 11.16751}, {"bid": "2226232", "strasse": "Lange Str.", "hnr": "24", "hnr_zusatz": "B", "plz": "06577", "ort": "An der Schmücke", "name": "Annette Meyer-Jersch", "email": "nettelm@gmx.de", "mobil": "+4917657637769", "festnetz": "", "typ": "EFH", "we": 1, "ge": 0, "zustimmung": "AGREED", "lat": 51.30304, "lng": 11.21497}, {"bid": "2226238", "strasse": "Fritz-Hankel-Str.", "hnr": "2", "hnr_zusatz": "", "plz": "06577", "ort": "An der Schmücke", "name": "Luisa Bornschein", "email": "bornscheinluisa@gmx.de", "mobil": "+4917687661446", "festnetz": "", "typ": "EFH", "we": 1, "ge": 0, "zustimmung": "AGREED", "lat": 51.3111, "lng": 11.16425}, {"bid": "2226224", "strasse": "Mühlstr.", "hnr": "4", "hnr_zusatz": "", "plz": "06577", "ort": "An der Schmücke", "name": "Angela Beutler", "email": "angela-beutler@t-online.de", "mobil": "+491621868176", "festnetz": "+493467377546", "typ": "EFH", "we": 1, "ge": 0, "zustimmung": "AGREED", "lat": 51.30097, "lng": 11.22315}, {"bid": "2226236", "strasse": "Oberheldrunger Str.", "hnr": "19", "hnr_zusatz": "E", "plz": "06577", "ort": "An der Schmücke", "name": "Steffen Post", "email": "steffen.daniela72@gmail.com", "mobil": "+4915201484068", "festnetz": "+492116585739", "typ": "EFH", "we": 1, "ge": 0, "zustimmung": "AGREED", "lat": 51.29767, "lng": 11.21445}, {"bid": "2226229", "strasse": "St. Wigberti-Str.", "hnr": "6", "hnr_zusatz": "", "plz": "06577", "ort": "An der Schmücke", "name": "Matthias Schenk", "email": "heike.mller38@yahoo.com", "mobil": "+4917655799053", "festnetz": "+493467318495", "typ": "EFH", "we": 1, "ge": 0, "zustimmung": "AGREED", "lat": 51.30246, "lng": 11.21647}, {"bid": "2226245", "strasse": "Bahnhofstr.", "hnr": "8", "hnr_zusatz": "A", "plz": "06577", "ort": "An der Schmücke", "name": "Peter Schmuck", "email": "peterschmuck@gmx.de", "mobil": "+4915772056511", "festnetz": "+4934673204876", "typ": "EFH", "we": 1, "ge": 0, "zustimmung": "AGREED", "lat": 51.30039, "lng": 11.21066}, {"bid": "2226254", "strasse": "Lange Str.", "hnr": "29", "hnr_zusatz": "", "plz": "06577", "ort": "An der Schmücke", "name": "René Haarseim", "email": "rene@licht-produktiv.de", "mobil": "+491628535955", "festnetz": "+4934673779921", "typ": "EFH", "we": 1, "ge": 0, "zustimmung": "AGREED", "lat": 51.30341, "lng": 11.2156}, {"bid": "2226257", "strasse": "Karlsbader Str.", "hnr": "4", "hnr_zusatz": "", "plz": "06577", "ort": "An der Schmücke", "name": "Bernhardt Kammering", "email": "b.kammering@t-online.de", "mobil": "+4915122838121", "festnetz": "+493467398067", "typ": "EFH", "we": 1, "ge": 0, "zustimmung": "AGREED", "lat": 51.29839, "lng": 11.21168}, {"bid": "2226247", "strasse": "Bahnhofstr.", "hnr": "5", "hnr_zusatz": "", "plz": "06577", "ort": "An der Schmücke", "name": "Jörg Schädel", "email": "ljschaedel@t-online.de", "mobil": "+4915174475339", "festnetz": "", "typ": "MFH", "we": 2, "ge": 0, "zustimmung": "AGREED", "lat": 51.29997, "lng": 11.21237}, {"bid": "2226250", "strasse": "Teichweg", "hnr": "39", "hnr_zusatz": "", "plz": "06577", "ort": "An der Schmücke", "name": "Thomas Fahnert", "email": "thomas.fahnert@gmx.net", "mobil": "+491624973338", "festnetz": "", "typ": "EFH", "we": 1, "ge": 0, "zustimmung": "AGREED", "lat": 51.29694, "lng": 11.21876}, {"bid": "2226244", "strasse": "Weststr.", "hnr": "6", "hnr_zusatz": "", "plz": "06577", "ort": "An der Schmücke", "name": "Olaf Heimbrot", "email": "muhli06@web.de", "mobil": "", "festnetz": "+493466319315", "typ": "EFH", "we": 1, "ge": 0, "zustimmung": "AGREED", "lat": 51.3097, "lng": 11.16796}, {"bid": "2226253", "strasse": "Waldstr.", "hnr": "13", "hnr_zusatz": "", "plz": "06577", "ort": "An der Schmücke", "name": "Silvia Blöding", "email": "u.unbenannt@t-online.de", "mobil": "+491705261392", "festnetz": "", "typ": "EFH", "we": 1, "ge": 0, "zustimmung": "AGREED", "lat": 51.30853, "lng": 11.16823}, {"bid": "2226252", "strasse": "Amselweg", "hnr": "4", "hnr_zusatz": "", "plz": "06577", "ort": "An der Schmücke", "name": "Andrea Henning", "email": "henninguwe@gmx.de", "mobil": "+4915168499517", "festnetz": "+493467396347", "typ": "EFH", "we": 1, "ge": 0, "zustimmung": "AGREED", "lat": 51.29892, "lng": 11.21266}, {"bid": "2226243", "strasse": "Am Schlag", "hnr": "3", "hnr_zusatz": "A", "plz": "06577", "ort": "An der Schmücke", "name": "Harald Lulley", "email": "harald-lulley@web.de", "mobil": "+491723806133", "festnetz": "+493467391049", "typ": "EFH", "we": 1, "ge": 0, "zustimmung": "AGREED", "lat": 51.31062, "lng": 11.1711}, {"bid": "2226261", "strasse": "Am Schlag", "hnr": "4", "hnr_zusatz": "", "plz": "06577", "ort": "An der Schmücke", "name": "Maria Fiedler", "email": "m-tfiedler@arcor.de", "mobil": "+491788181414", "festnetz": "+493467397533", "typ": "EFH", "we": 1, "ge": 0, "zustimmung": "AGREED", "lat": 51.3104, "lng": 11.17079}, {"bid": "2226273", "strasse": "Karlsbader Str.", "hnr": "3", "hnr_zusatz": "", "plz": "06577", "ort": "An der Schmücke", "name": "Rainer Hodam", "email": "rainerhodam61@gmail.com", "mobil": "+4916092520911", "festnetz": "+493467398247", "typ": "EFH", "we": 1, "ge": 0, "zustimmung": "AGREED", "lat": 51.29839, "lng": 11.21174}, {"bid": "2226272", "strasse": "Karl-Liebknecht-Str.", "hnr": "25", "hnr_zusatz": "", "plz": "06577", "ort": "An der Schmücke", "name": "Heike Pätzold", "email": "paetzoldheike@t-online.de", "mobil": "+4915236373030", "festnetz": "+493467390687", "typ": "EFH", "we": 1, "ge": 0, "zustimmung": "AGREED", "lat": 51.3071, "lng": 11.16858}, {"bid": "2226274", "strasse": "Schillerstr.", "hnr": "12", "hnr_zusatz": "", "plz": "06577", "ort": "An der Schmücke", "name": "Harald Bodenstein", "email": "bodenstein.harald@web.de", "mobil": "+491701915720", "festnetz": "+493467398100", "typ": "EFH", "we": 1, "ge": 0, "zustimmung": "AGREED", "lat": 51.29965, "lng": 11.21156}, {"bid": "2226264", "strasse": "Lange Str.", "hnr": "51", "hnr_zusatz": "", "plz": "06577", "ort": "An der Schmücke", "name": "Sindy Gebhardt", "email": "denny.albert@gmx.de", "mobil": "+491759645562", "festnetz": "", "typ": "EFH", "we": 1, "ge": 0, "zustimmung": "AGREED", "lat": 51.30083, "lng": 11.21459}, {"bid": "2226265", "strasse": "Am Schlag", "hnr": "5", "hnr_zusatz": "", "plz": "06577", "ort": "An der Schmücke", "name": "Undine Gleichmann", "email": "and.glei@t-online.de", "mobil": "+4915205242286", "festnetz": "+493467390913", "typ": "EFH", "we": 1, "ge": 0, "zustimmung": "AGREED", "lat": 51.31051, "lng": 11.17018}, {"bid": "2226263", "strasse": "Ernst-Thälmann-Str.", "hnr": "28", "hnr_zusatz": "", "plz": "06577", "ort": "An der Schmücke", "name": "Stefan Hecker", "email": "stefan.hecker82@gmail.com", "mobil": "+491743023289", "festnetz": "+4934673789102", "typ": "EFH", "we": 1, "ge": 0, "zustimmung": "AGREED", "lat": 51.3101, "lng": 11.16332}, {"bid": "2226270", "strasse": "Lange Str.", "hnr": "39", "hnr_zusatz": "", "plz": "06577", "ort": "An der Schmücke", "name": "Jens Müller", "email": "mueller281065@t-online.de", "mobil": "+491633351788", "festnetz": "+493467396226", "typ": "EFH", "we": 1, "ge": 0, "zustimmung": "AGREED", "lat": 51.30392, "lng": 11.21628}, {"bid": "2226259", "strasse": "Gartenstr.", "hnr": "14", "hnr_zusatz": "", "plz": "06577", "ort": "An der Schmücke", "name": "Danny Tettenborn", "email": "dtettenborn@web.de", "mobil": "+491723645957", "festnetz": "+4934673153433", "typ": "MFH", "we": 1, "ge": 1, "zustimmung": "AGREED", "lat": 51.29701, "lng": 11.21761}, {"bid": "2226277", "strasse": "Teichweg", "hnr": "17", "hnr_zusatz": "", "plz": "06577", "ort": "An der Schmücke", "name": "Helmut Müller", "email": "h.mueller288@web.de", "mobil": "+4915785074465", "festnetz": "+493467398129", "typ": "EFH", "we": 1, "ge": 0, "zustimmung": "AGREED", "lat": 51.29721, "lng": 11.21837}, {"bid": "2226289", "strasse": "Bretlebener Weg", "hnr": "15", "hnr_zusatz": "", "plz": "06577", "ort": "An der Schmücke", "name": "Franziska Lehmann", "email": "lehmannstephan1@gmail.com", "mobil": "+491724017409", "festnetz": "+4934673785406", "typ": "EFH", "we": 1, "ge": 0, "zustimmung": "AGREED", "lat": 51.31135, "lng": 11.17484}, {"bid": "2226293", "strasse": "St. Wigberti-Str.", "hnr": "7", "hnr_zusatz": "", "plz": "06577", "ort": "An der Schmücke", "name": "Julia Schmidt", "email": "melaniepetrich2000@gmail.com", "mobil": "+4915123956164", "festnetz": "+493467396584", "typ": "MFH", "we": 1, "ge": 1, "zustimmung": "AGREED", "lat": 51.30234, "lng": 11.21659}, {"bid": "2226283", "strasse": "Lange Str.", "hnr": "18", "hnr_zusatz": "", "plz": "06577", "ort": "An der Schmücke", "name": "Andreas Grimmer", "email": "andreasgrimmer2@gmail.com", "mobil": "+491745877402", "festnetz": "+493467378555", "typ": "EFH", "we": 1, "ge": 0, "zustimmung": "AGREED", "lat": 51.30211, "lng": 11.21489}, {"bid": "2226282", "strasse": "Hohle", "hnr": "8", "hnr_zusatz": "", "plz": "06577", "ort": "An der Schmücke", "name": "Norbert Schlücke", "email": "nso59@t-online.de", "mobil": "+4915223286144", "festnetz": "+493467390817", "typ": "EFH", "we": 1, "ge": 0, "zustimmung": "AGREED", "lat": 51.30788, "lng": 11.16933}, {"bid": "2226286", "strasse": "Lange Str.", "hnr": "53", "hnr_zusatz": "", "plz": "06577", "ort": "An der Schmücke", "name": "Christian Stettin", "email": "alexandralenamarie131114@gmail.com", "mobil": "+491722821158", "festnetz": "", "typ": "EFH", "we": 1, "ge": 0, "zustimmung": "AGREED", "lat": 51.30067, "lng": 11.2145}, {"bid": "2226276", "strasse": "Grabenstr.", "hnr": "8", "hnr_zusatz": "", "plz": "06577", "ort": "An der Schmücke", "name": "Ronalt Witt", "email": "ronalt-witt@t-online.de", "mobil": "+491633648835", "festnetz": "", "typ": "EFH", "we": 1, "ge": 0, "zustimmung": "AGREED", "lat": 51.30976, "lng": 11.16868}, {"bid": "2226290", "strasse": "Karl-Liebknecht-Str.", "hnr": "27", "hnr_zusatz": "", "plz": "06577", "ort": "An der Schmücke", "name": "Karl Schultz", "email": "karl87@magenta.de", "mobil": "+4916094965626", "festnetz": "+4934673785323", "typ": "EFH", "we": 1, "ge": 0, "zustimmung": "AGREED", "lat": 51.30677, "lng": 11.16907}, {"bid": "2226278", "strasse": "Karl-Liebknecht-Str.", "hnr": "12", "hnr_zusatz": "", "plz": "06577", "ort": "An der Schmücke", "name": "Ev.-Luth. Pfarramt Oldisleben", "email": "buero-frankenhausen1@suptur-bad-frankenhausen.de", "mobil": "+491701835685", "festnetz": "+493467391598", "typ": "MFH", "we": 1, "ge": 1, "zustimmung": "AGREED", "lat": 51.30645, "lng": 11.17079}, {"bid": "2226302", "strasse": "Lange Str.", "hnr": "47", "hnr_zusatz": "", "plz": "06577", "ort": "An der Schmücke", "name": "Bauna Bau und Möbeltischlerei GmbH", "email": "sabinelaufer@bauna-gmbh.de", "mobil": "+4915225420834", "festnetz": "+493467391495", "typ": "EFH", "we": 1, "ge": 0, "zustimmung": "AGREED", "lat": 51.30224, "lng": 11.21539}, {"bid": "2226317", "strasse": "Bahnhofstr.", "hnr": "9", "hnr_zusatz": "", "plz": "06577", "ort": "An der Schmücke", "name": "Roland und Elke Schröder", "email": "elkeschroederheldrungen@t-online.de", "mobil": "+491752042932", "festnetz": "+493467377461", "typ": "EFH", "we": 1, "ge": 0, "zustimmung": "AGREED", "lat": 51.3007, "lng": 11.21035}, {"bid": "2226294", "strasse": "Gartenstr.", "hnr": "10", "hnr_zusatz": "", "plz": "06577", "ort": "An der Schmücke", "name": "Ursula u. Klaus-Jürgen Müller", "email": "celine260711@hotmail.com", "mobil": "+491735891752", "festnetz": "+493467398055", "typ": "EFH", "we": 1, "ge": 0, "zustimmung": "AGREED", "lat": 51.2958, "lng": 11.21856}, {"bid": "2226299", "strasse": "Waldstr.", "hnr": "27", "hnr_zusatz": "", "plz": "06577", "ort": "An der Schmücke", "name": "Chris Lindner", "email": "mandym.2608@web.de", "mobil": "+491621066277", "festnetz": "+4934673649969", "typ": "EFH", "we": 1, "ge": 0, "zustimmung": "AGREED", "lat": 51.30809, "lng": 11.16775}, {"bid": "2226300", "strasse": "Bahnhofstr.", "hnr": "8", "hnr_zusatz": "", "plz": "06577", "ort": "An der Schmücke", "name": "Marko Bodenstein", "email": "marko-bodenstein@t-online.de", "mobil": "+4915164975707", "festnetz": "+493467378366", "typ": "MFH", "we": 2, "ge": 0, "zustimmung": "AGREED", "lat": 51.30028, "lng": 11.21135}, {"bid": "2226313", "strasse": "Karl-Liebknecht-Str.", "hnr": "16", "hnr_zusatz": "B", "plz": "06577", "ort": "An der Schmücke", "name": "Home Garden", "email": "HG_DIENSTLEISTUNGEN@GMX.NET", "mobil": "", "festnetz": "+4934673789179", "typ": "EFH", "we": 1, "ge": 0, "zustimmung": "PENDING", "lat": 51.30498, "lng": 11.17236}, {"bid": "2226308", "strasse": "Bahnhofstr.", "hnr": "32", "hnr_zusatz": "", "plz": "06577", "ort": "An der Schmücke", "name": "Karin Schmidt", "email": "schmidtkarin1966@gmail.com", "mobil": "+4915157209201", "festnetz": "+493467397276", "typ": "EFH", "we": 1, "ge": 0, "zustimmung": "AGREED", "lat": 51.30086, "lng": 11.20801}, {"bid": "2226296", "strasse": "Weststr.", "hnr": "12", "hnr_zusatz": "", "plz": "06577", "ort": "An der Schmücke", "name": "Kati Ludwig-Schulze", "email": "mike-ludwig@t-online.de", "mobil": "+4915754666794", "festnetz": "+4934673168815", "typ": "EFH", "we": 1, "ge": 0, "zustimmung": "AGREED", "lat": 51.30941, "lng": 11.16739}, {"bid": "2226306", "strasse": "Lange Str.", "hnr": "27", "hnr_zusatz": "", "plz": "06577", "ort": "An der Schmücke", "name": "Allianz Metall Rente", "email": "nicolle.mueller@allianz.de", "mobil": "+491749495591", "festnetz": "+49347378688", "typ": "EFH", "we": 1, "ge": 0, "zustimmung": "AGREED", "lat": 51.30315, "lng": 11.21547}, {"bid": "2226322", "strasse": "Bretlebener Weg", "hnr": "13", "hnr_zusatz": "", "plz": "06577", "ort": "An der Schmücke", "name": "Stephan Seydenschwanz", "email": "stephan2284@gmail.com", "mobil": "+491733949448", "festnetz": "+4934673788599", "typ": "EFH", "we": 1, "ge": 0, "zustimmung": "AGREED", "lat": 51.31128, "lng": 11.17496}, {"bid": "2226333", "strasse": "Schillerstr.", "hnr": "8", "hnr_zusatz": "", "plz": "06577", "ort": "An der Schmücke", "name": "Uwe Hübner", "email": "huebnerp1966@aol.com", "mobil": "+4915783563860", "festnetz": "+493467398258", "typ": "EFH", "we": 1, "ge": 0, "zustimmung": "AGREED", "lat": 51.29929, "lng": 11.21076}, {"bid": "2226328", "strasse": "Lange Str.", "hnr": "6", "hnr_zusatz": "", "plz": "06577", "ort": "An der Schmücke", "name": "Ronald Sörgel", "email": "ots-soergel@t-online.de", "mobil": "+491713170975", "festnetz": "+493467391249", "typ": "MFH", "we": 1, "ge": 1, "zustimmung": "AGREED", "lat": 51.30104, "lng": 11.21432}, {"bid": "2226325", "strasse": "Lange Str.", "hnr": "3", "hnr_zusatz": "", "plz": "06577", "ort": "An der Schmücke", "name": "Rainer Lüddecke", "email": "rainer.lueddecke@gmx.de", "mobil": "+491723867817", "festnetz": "", "typ": "EFH", "we": 1, "ge": 0, "zustimmung": "AGREED", "lat": 51.30055, "lng": 11.21415}, {"bid": "2226327", "strasse": "Lange Str.", "hnr": "45", "hnr_zusatz": "B", "plz": "06577", "ort": "An der Schmücke", "name": "Dagmar Drescher", "email": "dagmardrescher27@gmail.com", "mobil": "+4917642734700", "festnetz": "+493467396631", "typ": "MFH", "we": 2, "ge": 0, "zustimmung": "AGREED", "lat": 51.30365, "lng": 11.21642}, {"bid": "2226323", "strasse": "Teichweg", "hnr": "24", "hnr_zusatz": "", "plz": "06577", "ort": "An der Schmücke", "name": "Renate Cakir", "email": "baustoffbub@web.de", "mobil": "+4915227766583", "festnetz": "+4934673157376", "typ": "EFH", "we": 1, "ge": 0, "zustimmung": "AGREED", "lat": 51.29684, "lng": 11.21939}, {"bid": "2226329", "strasse": "Steinstr.", "hnr": "24", "hnr_zusatz": "", "plz": "06577", "ort": "An der Schmücke", "name": "Andreas Wahrenholz", "email": "ines_w@gmx.de", "mobil": "+4915901264318", "festnetz": "+4934673787744", "typ": "EFH", "we": 1, "ge": 0, "zustimmung": "AGREED", "lat": 51.30158, "lng": 11.21236}, {"bid": "2226334", "strasse": "Lange Str.", "hnr": "26", "hnr_zusatz": "", "plz": "06577", "ort": "An der Schmücke", "name": "Wolfram Sackmann", "email": "astridsackmann56@gmail.com", "mobil": "+491747526211", "festnetz": "+493467397322", "typ": "EFH", "we": 1, "ge": 0, "zustimmung": "AGREED", "lat": 51.30307, "lng": 11.21543}, {"bid": "2226331", "strasse": "Steinstr.", "hnr": "12", "hnr_zusatz": "", "plz": "06577", "ort": "An der Schmücke", "name": "Leon Schröter", "email": "leon.schroeter98@web.de", "mobil": "+4915201741915", "festnetz": "", "typ": "EFH", "we": 1, "ge": 0, "zustimmung": "AGREED", "lat": 51.30229, "lng": 11.21243}, {"bid": "2226354", "strasse": "Weimarer Str.", "hnr": "10", "hnr_zusatz": "", "plz": "06577", "ort": "An der Schmücke", "name": "Rene Koppo", "email": "der_stopper@web.de", "mobil": "+491603754927", "festnetz": "+4934673779224", "typ": "EFH", "we": 1, "ge": 0, "zustimmung": "AGREED", "lat": 51.30288, "lng": 11.21001}, {"bid": "2226350", "strasse": "Lange Str.", "hnr": "7", "hnr_zusatz": "", "plz": "06577", "ort": "An der Schmücke", "name": "Sandra Wackes", "email": "wackeswackes@gmx.de", "mobil": "+4916096978754", "festnetz": "+4934673168811", "typ": "EFH", "we": 1, "ge": 0, "zustimmung": "AGREED", "lat": 51.30136, "lng": 11.21451}, {"bid": "2226351", "strasse": "Hohle", "hnr": "12", "hnr_zusatz": "", "plz": "06577", "ort": "An der Schmücke", "name": "Yvonne Steinecke", "email": "yvonne.steinecke@freenet.de", "mobil": "+491729660652", "festnetz": "+4934673778775", "typ": "EFH", "we": 1, "ge": 0, "zustimmung": "AGREED", "lat": 51.30757, "lng": 11.16883}, {"bid": "2226356", "strasse": "Schillerstr.", "hnr": "10", "hnr_zusatz": "", "plz": "06577", "ort": "An der Schmücke", "name": "Sandy Nolle", "email": "robertnolle@gmx.de", "mobil": "+491605923086", "festnetz": "", "typ": "EFH", "we": 1, "ge": 0, "zustimmung": "AGREED", "lat": 51.29918, "lng": 11.21105}, {"bid": "2226335", "strasse": "Goethestr.", "hnr": "7", "hnr_zusatz": "", "plz": "06577", "ort": "An der Schmücke", "name": "Sven Koch", "email": "svenkoch.harras@web.de", "mobil": "+491718002395", "festnetz": "+493467378619", "typ": "EFH", "we": 1, "ge": 0, "zustimmung": "AGREED", "lat": 51.3017, "lng": 11.21106}, {"bid": "2226340", "strasse": "Finkenweg", "hnr": "8", "hnr_zusatz": "", "plz": "06577", "ort": "An der Schmücke", "name": "Steffen Beier", "email": "beier.steffen@t-online.de", "mobil": "+4915228869230", "festnetz": "+493467397783", "typ": "EFH", "we": 1, "ge": 0, "zustimmung": "AGREED", "lat": 51.299, "lng": 11.21199}, {"bid": "2226348", "strasse": "Steinstr.", "hnr": "6", "hnr_zusatz": "", "plz": "06577", "ort": "An der Schmücke", "name": "Roland Wittmann", "email": "sim.wittmann@web.de", "mobil": "+491738240133", "festnetz": "+493467398259", "typ": "EFH", "we": 1, "ge": 0, "zustimmung": "AGREED", "lat": 51.30166, "lng": 11.21217}, {"bid": "2226357", "strasse": "Lange Str.", "hnr": "47", "hnr_zusatz": "A", "plz": "06577", "ort": "An der Schmücke", "name": "Heidrun Enke", "email": "alexandra-enke@t-online.de", "mobil": "+4915156322390", "festnetz": "+4934673771010", "typ": "EFH", "we": 1, "ge": 0, "zustimmung": "AGREED", "lat": 51.30176, "lng": 11.21506}, {"bid": "2226343", "strasse": "Goethestr.", "hnr": "17", "hnr_zusatz": "", "plz": "06577", "ort": "An der Schmücke", "name": "Klaus-Dieter Voigt", "email": "gartenbau-voigt@web.de", "mobil": "+491723755269", "festnetz": "+493467397880", "typ": "EFH", "we": 1, "ge": 0, "zustimmung": "AGREED", "lat": 51.3032, "lng": 11.21137}, {"bid": "2226371", "strasse": "Schillerstr.", "hnr": "11", "hnr_zusatz": "", "plz": "06577", "ort": "An der Schmücke", "name": "Reinhard Lothholz", "email": "reinhard.lothholz@gmail.com", "mobil": "+4915202814882", "festnetz": "+493467391459", "typ": "EFH", "we": 1, "ge": 0, "zustimmung": "AGREED", "lat": 51.29885, "lng": 11.21028}, {"bid": "2226369", "strasse": "Gartenstr.", "hnr": "9", "hnr_zusatz": "", "plz": "06577", "ort": "An der Schmücke", "name": "Roland Rothe", "email": "renate-rothe1948@t-online.de", "mobil": "+491625232376", "festnetz": "+493467398056", "typ": "EFH", "we": 1, "ge": 0, "zustimmung": "AGREED", "lat": 51.29574, "lng": 11.21864}, {"bid": "2226388", "strasse": "Karl-Liebknecht-Str.", "hnr": "16", "hnr_zusatz": "C", "plz": "06577", "ort": "An der Schmücke", "name": "Home and Garden - Hausverwaltung", "email": "hg_dienstleistungen@gmx.net", "mobil": "+491754139818", "festnetz": "", "typ": "MFH", "we": 2, "ge": 0, "zustimmung": "PENDING", "lat": 51.30455, "lng": 11.17172},